"관리기관명",소재지도로명주소,소재지지번주소,설치목적구분,카메라대수,카메라화소수,촬영방면정보,보관일수,설치년월,관리기관전화번호,위도,경도,데이터기준일자
"제주특별자치도 서귀포시",제주특별자치도 서귀포시 중앙로 105,,다목적,12,,,,2018-04,064-760-2055,33.254092,126.560194,2018-07-31
"제주특별자치도 서귀포시",제주특별자치도 서귀포시 중앙로 105,,다목적,34,,,,2018-04,064-760-2055,33.254092,126.560194,2018-07-31
"제주특별자치도 서귀포시",제주특별자치도 서귀포시 중앙로 105,,다목적,24,,,,2017-11,064-760-2055,33.254092,126.560194,2018-07-31
"제주특별자치도 서귀포시",제주특별자치도 서귀포시 중앙로 105,,다목적,28,,,,2017-11,064-760-2055,33.254092,126.560194,2018-07-31
"제주특별자치도 서귀포시",제주특별자치도 서귀포시 신중로 55 (2청사 동쪽 내부),,다목적,1,,,,2014-04,064-760-2055,33.255441,126.510606,2018-07-31
"제주특별자치도 서귀포시",제주특별자치도 서귀포시 중앙로 105,,다목적,16,,,,2017-11,064-760-2044,33.254092,126.560194,2018-07-31
"제주특별자치도 서귀포시",제주특별자치도 서귀포시 강정동 4362,,다목적,7,,,,2018-04,064-760-2581,33.2375458,126.4769981,2018-07-31
"제주특별자치도 서귀포시",제주특별자치도 서귀포시 서호남로 10,,다목적,14,,,,2017-11,064-760-2254,33.254121,126.3315148,2018-07-31
"제주특별자치도 서귀포시",제주특별자치도 서귀포시 동홍중앙로7번길 19,,다목적,7,,,,2016-05,064-760-3965,33.2512963871,126.570321173,2018-07-31
"제주특별자치도 서귀포시",제주특별자치도 서귀포시 서홍동 666-1,,다목적,1,,,,2004-04,064-760-3283,33.247217,126.554658,2018-07-31
"제주특별자치도 서귀포시",제주특별자치도 서귀포시 남원읍 하례리 1642,,다목적,1,,,,2007-04,064-760-3283,33.286521,126.608170,2018-07-31
"제주특별자치도 서귀포시",제주특별자치도 서귀포시 서홍동 718-3,,다목적,1,,,,2004-05,064-760-3283,33.242239,126.558918,2018-07-31
"제주특별자치도 서귀포시",제주특별자치도 서귀포시 도순동 1185-1,,다목적,1,,,,2009-04,064-760-3283,33.259364,126.474559,2018-07-31
"제주특별자치도 서귀포시",제주특별자치도 서귀포시 강정동 3313-5,,다목적,1,,,,2009-05,064-760-3283,33.250879,126.489221,2018-07-31
"제주특별자치도 서귀포시",제주특별자치도 서귀포시 동홍동 1703,,다목적,1,,,,2009-05,064-760-3283,33.265606,126.565135,2018-07-31
"제주특별자치도 서귀포시",제주특별자치도 서귀포시 서홍동 1610,,다목적,1,,,,2009-04,064-760-3283,33.264141,126.554432,2018-07-31
"제주특별자치도 서귀포시",제주특별자치도 서귀포시 남원읍 하례리 156,,다목적,1,,,,2009-04,064-760-3283,33.258566,126.624216,2018-07-31
"제주특별자치도 서귀포시",제주특별자치도 서귀포시 남원읍 신례리 1223,,다목적,1,,,,2009-04,064-760-3283,33.294019,126.624763,2018-07-31
"제주특별자치도 서귀포시",제주특별자치도 서귀포시 색달동 1713,,다목적,1,,,,2009-04,064-760-3283,33.262874,126.423088,2018-07-31
"제주특별자치도 서귀포시",제주특별자치도 서귀포시 안덕면 창천리 154,,다목적,1,,,,2009-04,064-760-3283,33.265396,126.372220,2018-07-31
"제주특별자치도 서귀포시",제주특별자치도 서귀포시 표선면 성읍리 483-7,,다목적,1,,,,2009-05,064-760-3283,33.395445,126.801083,2018-07-31
"제주특별자치도 서귀포시",제주특별자치도 서귀포시 남원읍 의귀리 1657-1,,다목적,1,,,,2009-05,064-760-3283,33.315439,126.714237,2018-07-31
"제주특별자치도 서귀포시",제주특별자치도 서귀포시 남원읍 한남리 277,,다목적,1,,,,2009-05,064-760-3283,33.314279,126.695266,2018-07-31
"제주특별자치도 서귀포시",제주특별자치도 서귀포시 성산읍 수산리 3193,,다목적,1,,,,2010-08,064-760-3283,33.434240,126.854194,2018-07-31
"제주특별자치도 서귀포시",제주특별자치도 서귀포시 성산읍 삼달리 2249-1,,다목적,1,,,,2010-08,064-760-3283,33.388526,126.808246,2018-07-31
"제주특별자치도 서귀포시",제주특별자치도 서귀포시 표선면 가시리 1114-3,,다목적,1,,,,2010-08,064-760-3283,33.347433,126.777574,2018-07-31
"제주특별자치도 서귀포시",제주특별자치도 서귀포시 남원읍 신흥리 1242,,다목적,1,,,,2010-08,064-760-3283,33.321213,126.749855,2018-07-31
"제주특별자치도 서귀포시",제주특별자치도 서귀포시 남원읍 위미리 3482-1,,다목적,1,,,,2010-08,064-760-3283,33.289396,126.656881,2018-07-31
"제주특별자치도 서귀포시",제주특별자치도 서귀포시 강정동 1905-19,,다목적,1,,,,2010-08,064-760-3283,33.261387,126.493995,2018-07-31
"제주특별자치도 서귀포시",제주특별자치도 서귀포시 안덕면 상천리 176-3,,다목적,1,,,,2010-08,064-760-3283,33.300910,126.403435,2018-07-31
"제주특별자치도 서귀포시",제주특별자치도 서귀포시 안덕면 상천리 산 99-4,,다목적,1,,,,2010-04,064-760-3283,33.325926,126.381155,2018-07-31
"제주특별자치도 서귀포시",제주특별자치도 서귀포시 대정읍 신도리 3076-1,,다목적,1,,,,2012-03,064-760-3283,33.276405,126.171089,2018-07-31
"제주특별자치도 서귀포시",제주특별자치도 서귀포시 대정읍 하모리 141,,다목적,1,,,,2012-03,064-760-3283,33.197394,126.266963,2018-07-31
"제주특별자치도 서귀포시",제주특별자치도 서귀포시 강정동 3851-1,,다목적,1,,,,2012-03,064-760-3283,33.261943,126.476855,2018-07-31
"제주특별자치도 서귀포시",제주특별자치도 서귀포시 표선면 표선리 1-2,,다목적,1,,,,2012-03,064-760-3283,33.325090,126.845782,2018-07-31
"제주특별자치도 서귀포시",제주특별자치도 서귀포시 성산읍 성산리 347-9,,다목적,1,,,,2012-04,064-760-3283,33.470990,126.934498,2018-07-31
"제주특별자치도 서귀포시",제주특별자치도 서귀포시 성산읍 신산리 565-7,,다목적,1,,,,2012-04,064-760-3283,33.380427,126.881279,2018-07-31
"제주특별자치도 서귀포시",제주특별자치도 서귀포시 남원읍 태흥리 364-3,,다목적,1,,,,2012-04,064-760-3283,33.287020,126.749571,2018-07-31
"제주특별자치도 서귀포시",제주특별자치도 서귀포시 남원읍 위미리 789-2,,다목적,1,,,,2012-04,064-760-3283,33.268492,126.674179,2018-07-31
"제주특별자치도 서귀포시",제주특별자치도 서귀포시 보목동 566-3,,다목적,1,,,,2012-04,064-760-3283,33.239162,126.607159,2018-07-31
"제주특별자치도 서귀포시",제주특별자치도 서귀포시 대정읍 하모리 697-2,,다목적,1,,,,2012-04,064-760-3283,33.214402,126.252320,2018-07-31
"제주특별자치도 서귀포시",제주특별자치도 서귀포시 서홍로 4-42,,다목적,1,,,,2013-02,064-760-3283,33.249986,126.5551498,2018-07-31
"제주특별자치도 서귀포시",제주특별자치도 서귀포시 천지동 568,,다목적,1,,,,2013-02,064-760-3283,33.247338,126.554466,2018-07-31
"제주특별자치도 서귀포시",제주특별자치도 서귀포시 하효동 1460 인근,,다목적,1,,,,2016-03,064-760-3283,33.251908,126.622984,2018-07-31
"제주특별자치도 서귀포시",제주특별자치도 서귀포시 동홍동 1285-1,,다목적,1,,,,2016-03,064-760-3283,33.264969,126.565089,2018-07-31
"제주특별자치도 서귀포시",제주특별자치도 서귀포시 하예동 532-3,,다목적,1,,,,2016-03,064-760-3283,33.237154,126.389087,2018-07-31
"제주특별자치도 서귀포시",제주특별자치도 서귀포시 강정동 3055,,다목적,1,,,,2016-04,064-760-3283,33.236099,126.489948,2018-07-31
"제주특별자치도 서귀포시",제주특별자치도 서귀포시 호근동 1628,,다목적,1,,,,2016-04,064-760-3283,33.240750,126.526524,2018-07-31
"제주특별자치도 서귀포시",제주특별자치도 서귀포시 토평동 3246,,다목적,1,,,,2016-05,064-760-3283,33.298173,126.589572,2018-07-31
"제주특별자치도 서귀포시",제주특별자치도 서귀포시 안덕면 감산리 982-3,,다목적,1,,,,2016-05,064-760-3283,33.237078,126.361611,2018-07-31
"제주특별자치도 서귀포시",제주특별자치도 서귀포시 색달동 3381-7,,다목적,1,,,,2013-02,064-760-3283,33.245363,126.418358,2018-07-31
"제주특별자치도 서귀포시",제주특별자치도 서귀포시 상효동 1463,,다목적,1,,,,2013-02,064-760-3283,33.330692,126.567357,2018-07-31
"제주특별자치도 서귀포시",제주특별자치도 서귀포시 표선면 성읍리 2197-3,,다목적,1,,,,2012-04,064-760-3283,33.382330,126.792251,2018-07-31
"제주특별자치도 서귀포시",제주특별자치도 서귀포시 하원동 산76-4,,다목적,1,,,,2012-04,064-760-3283,33.290961,126.460920,2018-07-31
"제주특별자치도 서귀포시",제주특별자치도 서귀포시 남원읍 하례리 산 53-1,,다목적,1,,,,2012-04,064-760-3283,33.316995,126.597318,2018-07-31
"제주특별자치도 서귀포시",제주특별자치도 서귀포시 남원읍 수망리 산 210,,다목적,1,,,,2013-02,064-760-3283,33.350848,126.697364,2018-07-31
"제주특별자치도 서귀포시",제주특별자치도 서귀포시 안덕면 동광리 산 98,,다목적,1,,,,2013-02,064-760-3283,33.324023,126.352396,2018-07-31
"제주특별자치도 서귀포시",제주특별자치도 서귀포시 상효동 2296-3,,다목적,1,,,,2013-04,064-760-3283,33.302254,126.575951,2018-07-31
"제주특별자치도 서귀포시",제주특별자치도 서귀포시 강정동 2672-1,,다목적,1,,,,2014-10,064-760-3283,33.233851,126.486665,2018-07-31
"제주특별자치도 서귀포시",제주특별자치도 서귀포시 성산읍 고성리 127-7,,다목적,1,,,,2014-10,064-760-3283,33.434565,126.925889,2018-07-31
"제주특별자치도 서귀포시",제주특별자치도 서귀포시 대포동 2184-9,,다목적,1,,,,2014-10,064-760-3283,33.239000,126.438082,2018-07-31
"제주특별자치도 서귀포시",제주특별자치도 서귀포시 서홍동 2478,,다목적,2,,,,2017-11,064-760-2392,33.280429,126.550729,2018-07-31
"제주특별자치도 서귀포시",제주특별자치도 서귀포시 중산간서로 97-1,,다목적,4,,,,2014-10,064-760-6412,33.260889,126.498155,2018-07-31
"제주특별자치도 서귀포시",제주특별자치도 서귀포시 대정읍 동일하모로 149번길 21-8,,다목적,3,,,,2014-10,064-760-6423,33.227771,126.247432,2018-07-31
"제주특별자치도 서귀포시",제주특별자치도 서귀포시 천제연로 185번길 11-1,,다목적,6,,,,2017-04,064-760-4871,33.253102,126.424428,2018-07-31
"제주특별자치도 서귀포시",제주특별자치도 서귀포시 이중섭로 27-3(서귀동),,다목적,11,,,,2005-04,064-760-3561,33.245861,126.560194,2018-07-31
"제주특별자치도 서귀포시",제주특별자치도 서귀포시 남성중로 153번길 15(서홍동),,다목적,16,,,,2007-04,064-760-3572,33.244839,126.5517975,2018-07-31
"제주특별자치도 서귀포시",제주특별자치도 서귀포시 이중섭로 33(서귀동),,다목적,5,,,,2008-04,064-760-3573,33.245209,126.564596,2018-07-31
"제주특별자치도 서귀포시",제주특별자치도 서귀포시 소암로 15(서귀동),,다목적,23,,,,2007-04,064-760-3513,33.245344,126.567513,2018-07-31
"제주특별자치도 서귀포시",제주특별자치도 서귀포시 김정문화로 36(강정동),,다목적,2,,,,2004-06,064-760-3579,33.251347,126.508604,2018-07-31
"제주특별자치도 서귀포시",제주특별자치도 서귀포시 중앙로 4번길 13,,다목적,3,,,,2013-02,064-760-2492,33.245423,126.563459,2018-07-31
"제주특별자치도 서귀포시",제주특별자치도 서귀포시 남성중로 칠십리시공원,,다목적,4,,,,2012-03,064-760-2492,33.247116,126.553448,2018-07-31
"제주특별자치도 서귀포시",제주특별자치도 서귀포시 칠십리로 156-8(서귀동),,다목적,4,,,,2007-04,064-760-6361,33.244886,126.570651,2018-07-31
"제주특별자치도 서귀포시",제주특별자치도 서귀포시 동홍로 31-7(동홍동),,다목적,2,,,,2017-07,064-760-3574,33.251673,126.566807,2018-07-31
"제주특별자치도 서귀포시",제주특별자치도 서귀포시 법환동 914                                          (월드컵경기장),,다목적,41,,,,2016-05,064-760-3634,33.248333,126.509165,2018-07-31
"제주특별자치도 서귀포시",제주특별자치도 서귀포시 중문동 1921-1                                    (국민체육센터),,다목적,23,,,,2012-03,064-760-0363,33.251175,126.432007,2018-07-31
"제주특별자치도 서귀포시",제주특별자치도 서귀포시 신례리 334                                (공천포전지휸련센터),,다목적,5,,,,2009-05,064-760-3659,33.275477,126.638945,2018-07-31
"제주특별자치도 서귀포시",제주특별자치도 서귀포시 태평로 270 (청사 외부),,다목적,20,,,,2014-10,064-760-3362,33.245231,126.551753,2018-07-31
"제주특별자치도 서귀포시",제주특별자치도 서귀포시 태평로 270 (청사 내부),,다목적,10,,,,2014-04,064-760-3362,33.245231,126.551753,2018-07-31
"제주특별자치도 서귀포시",제주특별자치도 서귀포시 남성중로 153번길 15,,다목적,8,,,,2016-05,064-760-3673,33.244657,126.551798,2018-07-31
"제주특별자치도 서귀포시",제주특별자치도 서귀포시 김정문화로 32,,다목적,11,,,,2016-05,064-760-3682,33.251182,126.508187,2018-07-31
"제주특별자치도 서귀포시",제주특별자치도 서귀포시 일주동로 8232,,다목적,8,,,,2017-07,064-760-3694,33.262268,126.608808,2018-07-31
"제주특별자치도 서귀포시",제주특별자치도 서귀포시 남성중로 2-11,,다목적,3,,,,2016-08,064-760-6302,33.244179,126.559884,2018-07-31
"제주특별자치도 서귀포시",제주특별자치도 서귀포시 남성중로 2-11,,다목적,2,,,,2016-08,064-760-6302,33.244797,126.559794,2018-07-31
"제주특별자치도 서귀포시",제주특별자치도 서귀포시 남성중로 2-34,,다목적,3,,,,2017-04,064-760-6302,33.245314,126.558721,2018-07-31
"제주특별자치도 서귀포시",제주특별자치도 서귀포시 서귀동 973,,다목적,3,,,,2017-04,064-760-6302,33.246141,126.557565,2018-07-31
"제주특별자치도 서귀포시",제주특별자치도 서귀포시 동홍동 272,,다목적,3,,,,2017-04,064-760-6302,33.244747,126.574140,2018-07-31
"제주특별자치도 서귀포시",제주특별자치도 서귀포시 칠십리로214번길 37,,다목적,2,,,,2016-08,064-760-6302,33.244658,126.573327,2018-07-31
"제주특별자치도 서귀포시",제주특별자치도 서귀포시 이어도로 36-30,,다목적,2,,,,2016-08,064-760-6302,33.237697,126.426005,2018-07-31
"제주특별자치도 서귀포시",제주특별자치도 서귀포시 천제연로 132,,다목적,2,,,,2016-08,064-760-6302,33.252642,126.418377,2018-07-31
"제주특별자치도 서귀포시",제주특별자치도 서귀포시 산방로 218-12,,다목적,1,,,,2016-08,064-760-6302,33.237253,126.313427,2018-07-31
"제주특별자치도 서귀포시",제주특별자치도 서귀포시 사계남로216번길 24-32,,다목적,2,,,,2016-08,064-760-6302,33.234783,126.314579,2018-07-31
"제주특별자치도 서귀포시",제주특별자치도 서귀포시 사계남로216번길 24-30,,다목적,2,,,,2016-08,064-760-6302,33.233586,126.313873,2018-07-31
"제주특별자치도 서귀포시",제주특별자치도 서귀포시 효돈순환로 441,,다목적,9,,,,2005-04,064-760-6402,33.271418,126.607118,2018-07-31
"제주특별자치도 서귀포시",제주특별자치도 서귀포시 중앙로 62번길 18,,다목적,26,,,,2017-11,064-760-2634,33.250171,126.563679,2018-07-31
"제주특별자치도 서귀포시",제주특별자치도 서귀포시 동홍동 774-3,,다목적,53,,,,2018-04,064-760-2634,33.266425,126.573481,2018-07-31
"제주특별자치도 서귀포시",제주특별자치도 서귀포시 성산읍 성산등용로 129-21,,다목적,78,,,,2017-04,064-760-3515,33.472368,126.932413,2018-07-31
"제주특별자치도 서귀포시",제주특별자치도 서귀포시 법환로 1,,다목적,5,,,,2016-03,064-760-2743,33.2361404,126.514737,2018-07-31
"제주특별자치도 서귀포시",제주특별자치도 서귀포시 대정읍 하모항구로 36 등,,다목적,47,,,,2017-11,064-760-2752,33.216998,126.250203,2018-07-31
"제주특별자치도 서귀포시",제주특별자치도 서귀포시 동홍동 2195(미악산) 외,,다목적,5,,,,2002-04,064-760-3393,33.301109,126.554723,2018-07-31
"제주특별자치도 서귀포시",제주특별자치도 서귀포시 안덕면 상천리 산1(돌오름입구) 외,,다목적,6,,,,2014-10,064-760-3393,33.313723,126.471470,2018-07-31
"제주특별자치도 서귀포시",제주특별자치도 서귀포시 산록남로 2271,,다목적,5,,,,2018-04,064-760-3773,33.301789,126.509593,2018-07-31
"제주특별자치도 서귀포시",제주특별자치도 서귀포시 대포동 산1-1,,다목적,10,,,,2016-03,064-760-3065,33.311340,126.460265,2018-07-31
"제주특별자치도 서귀포시",제주특별자치도 서귀포시 표선면 남조로 1487-73,,다목적,1,,,,2011-04,064-760-3481,33.401811,126.675383,2018-07-31
"제주특별자치도 서귀포시",제주특별자치도 서귀포시 표선면 남조로 1487-73,,다목적,5,,,,2018-04,064-760-3481,33.401811,126.675383,2018-07-31
"제주특별자치도 서귀포시",제주특별자치도 서귀포시 회수동 507,,다목적,2,,,,2016-03,064-760-2952,33.260575,126.445122,2018-07-31
"제주특별자치도 서귀포시",제주특별자치도 서귀포시 표선면 세화리 2404-1,,다목적,1,,,,2016-03,064-760-2952,33.325770,126.799933,2018-07-31
"제주특별자치도 서귀포시",제주특별자치도 서귀포시 도순동 235,,다목적,2,,,,2017-11,064-760-2952,33.318739,126.484858,2018-07-31
"제주특별자치도 서귀포시",제주특별자치도 서귀포시 서홍동 2565,,다목적,2,,,,2017-11,064-760-2952,33.281000,126.541000,2018-07-31
"제주특별자치도 서귀포시",제주특별자치도 서귀포시 안덕면 덕수리 2022,,다목적,2,,,,2017-11,064-760-2952,33.264894,126.306021,2018-07-31
"제주특별자치도 서귀포시",제주특별자치도 서귀포시 성산읍 신산리 1696-1,,다목적,2,,,,2017-11,064-760-2952,33.387182,126.859869,2018-07-31
"제주특별자치도 서귀포시",제주특별자치도 서귀포시 대정읍 상모리 2929-9,,다목적,2,,,,2017-11,064-760-2952,33.216579,126.262794,2018-07-31
"제주특별자치도 서귀포시",제주특별자치도 서귀포시 월평동 568-2,,다목적,2,,,,2017-11,064-760-2952,33.239861,126.462616,2018-07-31
"제주특별자치도 서귀포시",제주특별자치도 서귀포시 중문동 1322-5,,다목적,2,,,,2017-11,064-760-2952,33.251430,126.434824,2018-07-31
"제주특별자치도 서귀포시",제주특별자치도 서귀포시 토평동 3-1,,다목적,2,,,,2017-11,064-760-2952,33.265847,126.589615,2018-07-31
"제주특별자치도 서귀포시",제주특별자치도 서귀포시 표선면 새화리 1048-1,,다목적,2,,,,2017-11,064-760-2952,33.325577,126.799330,2018-07-31
"제주특별자치도 서귀포시",제주특별자치도 서귀포시 대정읍 동일리 산4-2,,다목적,2,,,,2017-11,064-760-2952,33.253363,126.249055,2018-07-31
"제주특별자치도 서귀포시",제주특별자치도 서귀포시 대정읍 무릉리 2276-1,,다목적,2,,,,2017-11,064-760-2952,33.270264,126.200420,2018-07-31
"제주특별자치도 서귀포시",제주특별자치도 서귀포시 성산읍 삼달리 1152-1,,다목적,2,,,,2017-11,064-760-2952,33.382288,126.834776,2018-07-31
"제주특별자치도 서귀포시",제주특별자치도 서귀포시 안덕면 서광동리 128,,다목적,2,,,,2017-11,064-760-2952,33.287980,126.331277,2018-07-31
"제주특별자치도 서귀포시",제주특별자치도 서귀포시 안덕면 상창리 387,,다목적,2,,,,2017-11,064-760-2952,33.276699,126.367991,2018-07-31
"제주특별자치도 서귀포시",제주특별자치도 서귀포시 표선면 하천리 233,,다목적,2,,,,2017-11,064-760-2952,33.341015,126.838669,2018-07-31
"제주특별자치도 서귀포시",제주특별자치도 서귀포시 월평동 3,,다목적,2,,,,2017-11,064-760-2952,33.244542,126.470533,2018-07-31
"제주특별자치도 서귀포시",제주특별자치도 서귀포시 하원동 1836-3,,다목적,2,,,,2017-11,064-760-2952,33.326215,126.471683,2018-07-31
"제주특별자치도 서귀포시",제주특별자치도 서귀포시 대정읍 무릉리 261,,다목적,2,,,,2018-04,064-760-2952,33.270264,126.200420,2018-07-31
"제주특별자치도 서귀포시",제주특별자치도 서귀포시 성산읍 고성리 1575,,다목적,2,,,,2018-04,064-760-2952,33.444575,126.909503,2018-07-31
"제주특별자치도 서귀포시",제주특별자치도 서귀포시 안덕면 상창리 1575,,다목적,2,,,,2018-04,064-760-2952,33.263833,126.352684,2018-07-31
"제주특별자치도 서귀포시",제주특별자치도 서귀포시 안덕면 사계리 1246,,다목적,2,,,,2018-04,064-760-2952,33.243837,126.297161,2018-07-31
"제주특별자치도 서귀포시",제주특별자치도 서귀포시 대포동 2607,,다목적,2,,,,2018-04,064-760-2952,33.243515,126.435222,2018-07-31
"제주특별자치도 서귀포시",제주특별자치도 서귀포시 색달남로 1241번길 145 (서귀포쓰레기위생매립장 계근대),,다목적,0,,,,2013-02,064-760-3860,33.3069813,126.4191098,2018-07-31
"제주특별자치도 서귀포시",제주특별자치도 서귀포시 남원읍 서성로651번길 137,,다목적,0,,,,2015-04,064-760-3502,33.3302005,126.6532763,2018-07-31
"제주특별자치도 서귀포시",제주특별자치도 서귀포시 성산읍 서성일로 513-111,,다목적,0,,,,2015-04,064-760-3502,33.3914341,126.7634271,2018-07-31
"제주특별자치도 서귀포시",제주특별자치도 서귀포시 표선면 중산간동로 4850-351,,다목적,0,,,,2015-04,064-760-3502,33.4232797,126.831193,2018-07-31
"제주특별자치도 서귀포시",제주특별자치도 서귀포시 클린하우스,,다목적,764,200,,,2018-04,064-760-3203,33.4769435,126.4846122,2018-07-31
"제주특별자치도 서귀포시",제주특별자치도 서귀포시 신중로 55,,다목적,2,,,,2017-11,064-760-3236,33.2553868,126.5109909,2018-07-31
"제주특별자치도 서귀포시",제주특별자치도 서귀포시 신중로 55,,다목적,1,,,,2017-11,064-760-3236,33.2552727,126.5113375,2018-07-31
"제주특별자치도 서귀포시",제주특별자치도 서귀포시 표선면 표선중앙로 71,,교통단속,1,,,,2012-03,064-760-3236,33.326904,126.832217,2018-07-31
"제주특별자치도 서귀포시",제주특별자치도 서귀포시 표선면 표선중앙로80번길 1,,교통단속,1,,,,2012-03,064-760-3236,33.326054,126.832694,2018-07-31
"제주특별자치도 서귀포시",제주특별자치도 서귀포시 표선면 표선동서로 228,,교통단속,1,,,,2012-03,064-760-3236,33.324299,126.832177,2018-07-31
"제주특별자치도 서귀포시",제주특별자치도 서귀포시 표선면 표선동서로 264,,교통단속,1,,,,2012-03,064-760-3236,33.327026,126.833865,2018-07-31
"제주특별자치도 서귀포시",제주특별자치도 서귀포시 중문동 1971-7,,교통단속,1,,,,2013-04,064-760-3236,33.251560,126.428153,2018-07-31
"제주특별자치도 서귀포시",제주특별자치도 서귀포시 중문동 2025-3,,교통단속,1,,,,2013-04,064-760-3236,33.251744,126.425326,2018-07-31
"제주특별자치도 서귀포시",제주특별자치도 서귀포시 중문동 2114-8,,교통단속,1,,,,2013-04,064-760-3236,33.251935,126.423031,2018-07-31
"제주특별자치도 서귀포시",제주특별자치도 서귀포시 중정로 60,,교통단속,1,,,,2013-04,064-760-3236,33.247618,126.562832,2018-07-31
"제주특별자치도 서귀포시",제주특별자치도 서귀포시 중정로 75,,교통단속,1,,,,2013-04,064-760-3236,33.248254,126.564455,2018-07-31
"제주특별자치도 서귀포시",제주특별자치도 서귀포시 서귀동 395-1,,교통단속,1,,,,2013-04,064-760-3236,33.248438,126.565833,2018-07-31
"제주특별자치도 서귀포시",제주특별자치도 서귀포시 동문로 5,,교통단속,1,,,,2014-04,064-760-3236,33.252362,126.562185,2018-07-31
"제주특별자치도 서귀포시",제주특별자치도 서귀포시 동문로 33,,교통단속,1,,,,2014-04,064-760-3236,33.250988,126.564459,2018-07-31
"제주특별자치도 서귀포시",제주특별자치도 서귀포시 동문로 57,,교통단속,1,,,,2014-04,064-760-3236,33.249569,126.566768,2018-07-31
"제주특별자치도 서귀포시",제주특별자치도 서귀포시 서귀동 216-21,,교통단속,1,,,,2014-04,064-760-3236,33.248520,126.568091,2018-07-31
"제주특별자치도 서귀포시",제주특별자치도 서귀포시 대정읍 동일하모로 201,,교통단속,1,,,,2014-04,064-760-3236,33.226076,126.252796,2018-07-31
"제주특별자치도 서귀포시",제주특별자치도 서귀포시 대정읍 하모중앙로 53,,교통단속,1,,,,2014-10,064-760-3236,33.223346,126.252578,2018-07-31
"제주특별자치도 서귀포시",제주특별자치도 서귀포시 대정읍 하모중앙로 76,,교통단속,1,,,,2014-10,064-760-3236,33.221365,126.251893,2018-07-31
"제주특별자치도 서귀포시",제주특별자치도 서귀포시 대정읍 신영로 114,,교통단속,1,,,,2014-10,064-760-3236,33.221968,126.254434,2018-07-31
"제주특별자치도 서귀포시",제주특별자치도 서귀포시 대정읍 상모로 310,,교통단속,1,,,,2014-10,064-760-3236,33.223072,126.2561403,2018-07-31
"제주특별자치도 서귀포시",제주특별자치도 서귀포시 남원읍 태위로 692,,교통단속,1,,,,2015-04,064-760-3236,33.279336,126.720484,2018-07-31
"제주특별자치도 서귀포시",제주특별자치도 서귀포시 남원읍 태위로 642,,교통단속,1,,,,2015-04,064-760-3236,33.278024,126.715379,2018-07-31
"제주특별자치도 서귀포시",제주특별자치도 서귀포시 남원읍 태위로 647,,교통단속,1,,,,2015-04,064-760-3236,33.278926,126.715704,2018-07-31
"제주특별자치도 서귀포시",제주특별자치도 서귀포시 남원읍 태위로 672-2,,교통단속,1,,,,2015-04,064-760-3236,33.2787404,126.718251,2018-07-31
"제주특별자치도 서귀포시",제주특별자치도 서귀포시 성산읍 고성오조로 55,,교통단속,1,,,,2015-04,064-760-3236,33.448812,126.914134,2018-07-31
"제주특별자치도 서귀포시",제주특별자치도 서귀포시 성산읍 고성동서로 69,,교통단속,1,,,,2015-04,064-760-3236,33.4508497,126.914834,2018-07-31
"제주특별자치도 서귀포시",제주특별자치도 서귀포시 중앙로 94,,교통단속,1,,,,2015-04,064-760-3236,33.253022,126.561612,2018-07-31
"제주특별자치도 서귀포시",제주특별자치도 서귀포시 서문로 1,,교통단속,1,,,,2015-04,064-760-3236,33.2522396,126.560833,2018-07-31
"제주특별자치도 서귀포시",제주특별자치도 서귀포시 중앙로 180,,교통단속,1,,,,2015-04,064-760-3236,33.260488,126.5600101,2018-07-31
"제주특별자치도 서귀포시",제주특별자치도 서귀포시 일주동로 8710,,교통단속,1,,,,2015-04,064-760-3236,33.252898,126.557946,2018-07-31
"제주특별자치도 서귀포시",제주특별자치도 서귀포시 안덕면 화순로 118,,교통단속,1,,,,2016-03,064-760-3236,33.246517,126.333877,2018-07-31
"제주특별자치도 서귀포시",제주특별자치도 서귀포시 안덕면 화순로 99,,교통단속,1,,,,2016-03,064-760-3236,33.246585,126.335922,2018-07-31
"제주특별자치도 서귀포시",제주특별자치도 서귀포시 서귀동 305-1,,교통단속,2,,,,2016-03,064-760-3236,33.251598,126.559429,2018-07-31
"제주특별자치도 서귀포시",제주특별자치도 서귀포시 중앙로 82,,교통단속,1,,,,2016-03,064-760-3236,33.251939,126.561459,2018-07-31
"제주특별자치도 서귀포시",제주특별자치도 서귀포시 중앙로 59,,교통단속,1,,,,2016-03,064-760-3236,33.249908,126.561402,2018-07-31
"제주특별자치도 서귀포시",제주특별자치도 서귀포시 중정로 53,,교통단속,1,,,,2016-03,064-760-3236,33.247797,126.562104,2018-07-31
"제주특별자치도 서귀포시",제주특별자치도 서귀포시 중정로 22,,교통단속,1,,,,2016-04,064-760-3236,33.247404,126.558732,2018-07-31
"제주특별자치도 서귀포시",제주특별자치도 서귀포시 태평로353번길 12-1,,교통단속,1,,,,2016-04,064-760-3236,33.246832,126.560437,2018-07-31
"제주특별자치도 서귀포시",제주특별자치도 서귀포시 서문서로 43,,교통단속,1,,,,2016-04,064-760-3236,33.251178,126.558592,2018-07-31
"제주특별자치도 서귀포시",제주특별자치도 서귀포시 동홍중앙로 10,,교통단속,1,,,,2016-03,064-760-3236,33.252542,126.572311,2018-07-31
"제주특별자치도 서귀포시",제주특별자치도 서귀포시 동홍북로 10,,교통단속,1,,,,2016-03,064-760-3236,33.259064,126.569409,2018-07-31
"제주특별자치도 서귀포시",제주특별자치도 서귀포시 동홍중앙로 2,,교통단속,1,,,,2016-03,064-760-3236,33.251167,126.572644,2018-07-31
"제주특별자치도 서귀포시",제주특별자치도 서귀포시 솔동산로22번길 21,,교통단속,1,,,,2016-03,064-760-3236,33.244284,126.562084,2018-07-31
"제주특별자치도 서귀포시",제주특별자치도 서귀포시 태평로 414,,교통단속,1,,,,2016-03,064-760-3236,33.244652,126.564647,2018-07-31
"제주특별자치도 서귀포시",제주특별자치도 서귀포시 대정읍 하모리 937-7,,교통단속,1,,,,2017-11,064-760-3236,33.220401,126.252092,2018-07-31
"제주특별자치도 서귀포시",제주특별자치도 서귀포시 대정읍 상모로290번길 2,,교통단속,1,,,,2017-11,064-760-3236,33.223279,126.258337,2018-07-31
"제주특별자치도 서귀포시",제주특별자치도 서귀포시 대정읍 보성리 2403,,교통단속,1,,,,2017-11,064-760-3236,33.290367,126.283656,2018-07-31
"제주특별자치도 서귀포시",제주특별자치도 서귀포시 대정읍 상모대서로 17,,교통단속,1,,,,2017-11,064-760-3236,33.224832,126.256319,2018-07-31
"제주특별자치도 서귀포시",제주특별자치도 서귀포시 남원읍 태위로 126,,교통단속,1,,,,2017-11,064-760-3236,33.274583,126.660968,2018-07-31
"제주특별자치도 서귀포시",제주특별자치도 서귀포시 성산읍 동류암로 41,,교통단속,1,,,,2017-11,064-760-3236,33.448579,126.916071,2018-07-31
"제주특별자치도 서귀포시",제주특별자치도 서귀포시 표선면 표선관정로 85,,교통단속,1,,,,2017-11,064-760-3236,33.325123,126.829995,2018-07-31
"제주특별자치도 서귀포시",제주특별자치도 서귀포시 표선면 표선중앙로 104,,교통단속,1,,,,2017-11,064-760-3236,33.325613,126.8348196,2018-07-31
"제주특별자치도 서귀포시",제주특별자치도 서귀포시 중앙로79번길 4,,교통단속,1,,,,2017-11,064-760-3236,33.251737,126.560833,2018-07-31
"제주특별자치도 서귀포시",제주특별자치도 서귀포시 명동로 12,,교통단속,1,,,,2017-11,064-760-3236,33.247019,126.563234,2018-07-31
"제주특별자치도 서귀포시",제주특별자치도 서귀포시 명동로 19-1,,교통단속,1,,,,2017-11,064-760-3236,33.247482,126.564168,2018-07-31
"제주특별자치도 서귀포시",제주특별자치도 서귀포시 서귀동 403-8,,교통단속,1,,,,2017-11,064-760-3236,33.247555,126.565959,2018-07-31
"제주특별자치도 서귀포시",제주특별자치도 서귀포시 서귀동 187-16,,교통단속,1,,,,2017-11,064-760-3236,33.246872,126.568059,2018-07-31
"제주특별자치도 서귀포시",제주특별자치도 서귀포시 중정로91번길 46,,교통단속,1,,,,2017-11,064-760-3236,33.251319,126.562586,2018-07-31
"제주특별자치도 서귀포시",제주특별자치도 서귀포시 동문동로 54,,교통단속,1,,,,2017-02,064-760-3236,33.252373,126.563259,2018-07-31
"제주특별자치도 서귀포시",제주특별자치도 서귀포시 일주동로 8651,,교통단속,1,,,,2017-02,064-760-3236,33.253717,126.564073,2018-07-31
"제주특별자치도 서귀포시",제주특별자치도 서귀포시 서귀동 250-35,,교통단속,1,,,,2017-02,064-760-3236,33.250250,126.567975,2018-07-31
"제주특별자치도 서귀포시",제주특별자치도 서귀포시 효돈로 210-2,,교통단속,1,,,,2017-02,064-760-3236,33.263498,126.621087,2018-07-31
"제주특별자치도 서귀포시",제주특별자치도 서귀포시 하효동 128-3,,교통단속,1,,,,2017-02,064-760-3236,33.263706,126.617700,2018-07-31
"제주특별자치도 서귀포시",제주특별자치도 서귀포시 효돈로 133,,교통단속,1,,,,2017-02,064-760-3236,33.264162,126.6132723,2018-07-31
"제주특별자치도 서귀포시",제주특별자치도 서귀포시 동홍동로 19,,교통단속,1,,,,2017-02,064-760-3236,33.2567134,126.574851,2018-07-31
"제주특별자치도 서귀포시",제주특별자치도 서귀포시 동홍로 157,,교통단속,1,,,,2017-02,064-760-3236,33.262668,126.567582,2018-07-31
"제주특별자치도 서귀포시",제주특별자치도 서귀포시 동홍로 101,,교통단속,1,,,,2017-02,064-760-3236,33.257495,126.568358,2018-07-31
"제주특별자치도 서귀포시",제주특별자치도 서귀포시 동홍로 39,,교통단속,1,,,,2017-02,064-760-3236,33.251925,126.5675814,2018-07-31
"제주특별자치도 서귀포시",제주특별자치도 서귀포시 중앙로 159번길,,교통단속,1,,,,2017-02,064-760-3236,33.261860,126.557891,2018-07-31
"제주특별자치도 서귀포시",제주특별자치도 서귀포시 홍중로 81,,교통단속,1,,,,2017-02,064-760-3236,33.259941,126.555248,2018-07-31
"제주특별자치도 서귀포시",제주특별자치도 서귀포시 중앙로101번길 17,,교통단속,1,,,,2017-02,064-760-3236,33.253444,126.558862,2018-07-31
"제주특별자치도 서귀포시",제주특별자치도 서귀포시 신서귀로76번길 6-3,,교통단속,1,,,,2017-02,064-760-3236,33.257222,126.513128,2018-07-31
"제주특별자치도 서귀포시",제주특별자치도 서귀포시 성산읍 성산등용로 130-21,,교통단속,1,,,,2017-02,064-760-3236,33.472371,126.931889,2018-07-31
"제주특별자치도 서귀포시",제주특별자치도 서귀포시 성산읍 동류암로 26,,교통단속,1,,,,2017-02,064-760-3236,33.448967,126.916734,2018-07-31
"제주특별자치도 서귀포시",제주특별자치도 서귀포시 남원읍 위미대성로 109-37,,교통단속,1,,,,2017-02,064-760-3236,33.305633,126.6633529,2018-07-31
"제주특별자치도 서귀포시",제주특별자치도 서귀포시 표선면 가시로 95,,교통단속,1,,,,2017-02,064-760-3236,33.330928,126.829905,2018-07-31
"제주특별자치도 서귀포시",제주특별자치도 서귀포시 표선면 표선리 447-13,,교통단속,1,,,,2017-02,064-760-3236,33.329274,126.835845,2018-07-31
"제주특별자치도 서귀포시",제주특별자치도 서귀포시 신효동 773-1,,교통단속,1,,,,2017-02,064-760-3236,33.263682,126.610287,2018-07-31
"제주특별자치도 서귀포시",제주특별자치도 서귀포시 하효동 715-5,,교통단속,1,,,,2017-02,064-760-3236,33.260619,126.616990,2018-07-31
"제주특별자치도 서귀포시",제주특별자치도 서귀포시 과원동로 3,,교통단속,1,,,,2017-07,064-760-3236,33.261296,126.620116,2018-07-31
"제주특별자치도 서귀포시",제주특별자치도 서귀포시 솔동산로 23,,교통단속,1,,,,2017-07,064-760-3236,33.242682,126.563849,2018-07-31
"제주특별자치도 서귀포시",제주특별자치도 서귀포시 중앙로42번길 42,,교통단속,1,,,,2017-07,064-760-3236,33.249064,126.566054,2018-07-31
"제주특별자치도 서귀포시",제주특별자치도 서귀포시 서문로 43,,교통단속,1,,,,2017-07,064-760-3236,33.249304,126.557986,2018-07-31
"제주특별자치도 서귀포시",제주특별자치도 서귀포시 서홍동 794-1,,교통단속,1,,,,2017-07,064-760-3236,33.240799,126.546967,2018-07-31
"제주특별자치도 서귀포시",제주특별자치도 서귀포시 서홍동 780-1,,교통단속,1,,,,2017-07,064-760-3236,33.241652,126.548571,2018-07-31
"제주특별자치도 서귀포시",제주특별자치도 서귀포시 동홍동 447-15,,교통단속,1,,,,2017-07,064-760-3236,33.254467,126.567753,2018-07-31
"제주특별자치도 서귀포시",제주특별자치도 서귀포시 중앙로 215,,교통단속,1,,,,2017-07,064-760-3236,33.264064,126.5584310,2018-07-31
"제주특별자치도 서귀포시",제주특별자치도 서귀포시 중산간동로 8056,,교통단속,1,,,,2017-07,064-760-3236,33.2643298,126.556095,2018-07-31
"제주특별자치도 서귀포시",제주특별자치도 서귀포시 김정문화로 52,,교통단속,1,,,,2017-07,064-760-3236,33.250964,126.5095757,2018-07-31
"제주특별자치도 서귀포시",제주특별자치도 서귀포시 김정문화로 15,,교통단속,1,,,,2017-07,064-760-3236,33.252215,126.506232,2018-07-31
"제주특별자치도 서귀포시",제주특별자치도 서귀포시 강정동 199-1,,교통단속,1,,,,2017-07,064-760-3236,33.252513,126.502359,2018-07-31
"제주특별자치도 서귀포시",제주특별자치도 서귀포시 중문로 68,,교통단속,1,,,,2017-07,064-760-3236,33.257197,126.426468,2018-07-31
"제주특별자치도 서귀포시",제주특별자치도 서귀포시 중문로 41,,교통단속,1,,,,2017-07,064-760-3236,33.255264,126.424888,2018-07-31
"제주특별자치도 서귀포시",제주특별자치도 서귀포시 중문로 14,,교통단속,1,,,,2017-07,064-760-3236,33.253123,126.423774,2018-07-31
"제주특별자치도 서귀포시",제주특별자치도 서귀포시 중문동 1915-4,,교통단속,1,,,,2017-07,064-760-3236,33.251383,126.431325,2018-07-31
"제주특별자치도 서귀포시",제주특별자치도 서귀포시 상예동 1152-7,,교통단속,1,,,,2017-07,064-760-3236,33.246524,126.390999,2018-07-31
"제주특별자치도 서귀포시",제주특별자치도 서귀포시 중앙로 125,,교통단속,1,,,,2017-07,064-760-3236,33.256063,126.560467,2018-07-31
"제주특별자치도 서귀포시",제주특별자치도 서귀포시 표선리 702-2,,교통단속,1,,,,2017-07,064-760-3236,33.326007,126.831575,2018-07-31
"제주특별자치도 서귀포시",제주특별자치도 서귀포시 남원읍 태위로 270,,교통단속,1,,,,2018-04,064-760-3236,33.275518,126.6765281,2018-07-31
"제주특별자치도 서귀포시",제주특별자치도 서귀포시 남원읍 태위로 298,,교통단속,1,,,,2018-04,064-760-3236,33.276199,126.679522,2018-07-31
"제주특별자치도 서귀포시",제주특별자치도 서귀포시 안덕면 서광리 산50-13,,교통단속,1,,,,2018-04,064-760-3236,33.304939,126.288359,2018-07-31
"제주특별자치도 서귀포시",제주특별자치도 서귀포시 남원읍 태위로 66,,교통단속,1,,,,2018-04,064-760-3236,33.2735027,126.654723,2018-07-31
"제주특별자치도 서귀포시",제주특별자치도 서귀포시 성산읍 고성동서로 48,,교통단속,1,,,,2018-04,064-760-3236,33.450239,126.912238,2018-07-31
"제주특별자치도 서귀포시",제주특별자치도 서귀포시 태평로 474,,교통단속,1,,,,2018-04,064-760-3236,33.248482,126.569994,2018-07-31
"제주특별자치도 서귀포시",제주특별자치도 서귀포시 태평로 550,,교통단속,1,,,,2018-04,064-760-3236,33.252639,126.575596,2018-07-31
"제주특별자치도 서귀포시",제주특별자치도 서귀포시 토평동 1283-5,,교통단속,1,,,,2018-04,064-760-3236,33.268063,126.590082,2018-07-31
"제주특별자치도 서귀포시",제주특별자치도 서귀포시 소암로 16,,교통단속,1,,,,2018-04,064-760-3236,33.244844,126.567504,2018-07-31
"제주특별자치도 서귀포시",제주특별자치도 서귀포시 서호동 1608,,교통단속,1,,,,2018-04,064-760-3236,33.254062,126.519665,2018-07-31
"제주특별자치도 서귀포시",제주특별자치도 서귀포시 정방연로 49,,교통단속,1,,,,2018-04,064-760-3236,33.252011,126.576663,2018-07-31
"제주특별자치도 서귀포시",제주특별자치도 서귀포시 솜반천로 38,,교통단속,1,,,,2018-04,064-760-3236,33.254973,126.5566345,2018-07-31
"제주특별자치도 서귀포시",제주특별자치도 서귀포시 장수로 47,,교통단속,1,,,,2018-04,064-760-3236,33.256212,126.563884,2018-07-31
"제주특별자치도 서귀포시",제주특별자치도 서귀포시 중앙로72번길 38,,교통단속,1,,,,2018-04,064-760-3236,33.2521320741,126.564765,2018-07-31
"제주특별자치도 서귀포시",제주특별자치도 서귀포시 법환동 1666-3,,교통단속,1,,,,2018-04,064-760-3236,33.249570,126.512573,2018-07-31
"제주특별자치도 서귀포시",제주특별자치도 서귀포시 서귀동 311-6 (아랑조을거리 공영주차장),,다목적,9,,,,2014-04,064-760-3134,33.2476959,126.5603553,2018-07-31
"제주특별자치도 서귀포시",제주특별자치도 서귀포시 서귀동 298-2 (중앙로터리 공영주차장),,다목적,57,,,,2017-11,064-760-3134,33.251498,126.560577,2018-07-31
"제주특별자치도 서귀포시",제주특별자치도 서귀포시 서귀동 305-1 (천지공영주차빌딩),,다목적,33,,,,2014-04,064-760-3134,33.251598,126.559429,2018-07-31
"제주특별자치도 서귀포시",제주특별자치도 서귀포시 서귀동 301-2 (중앙공영주차빌딩),,다목적,49,,,,2014-04,064-760-3134,33.2497707,126.5624045,2018-07-31
"제주특별자치도 서귀포시",제주특별자치도 서귀포시 서귀동 403-6 (정방동공영주차장),,다목적,44,,,,2017-11,064-760-3134,33.247658,126.565845,2018-07-31
"제주특별자치도 서귀포시",제주특별자치도 서귀포시 동홍동 1480-6 (홍로공영주차장),,다목적,50,,,,2017-11,064-760-3134,33.2559146,126.5609425,2018-07-31
"제주특별자치도 서귀포시",제주특별자치도 서귀포시 펴선면 표선리 701 (표선면 공영주차장),,다목적,32,,,,2017-11,064-760-3134,33.3239972,126.8306863,2018-07-31
"제주특별자치도 서귀포시",제주특별자치도 서귀포시 중앙로101번길 52,,다목적,12,,,,2017-12,064-760-6048,33.253376,126.555202,2018-07-31
"제주특별자치도 서귀포시",제주특별자치도 서귀포시 남원읍 태위로527,,다목적,4,,,,2012-04,064-760-6114,33.275626,126.703493,2018-07-31
"제주특별자치도 서귀포시",제주특별자치도 서귀포시 남원읍 태위로527,,다목적,4,,,,2012-04,064-760-6114,33.275626,126.703493,2018-07-31
"제주특별자치도 서귀포시",제주특별자치도 서귀포시 남원읍 신례리 1081-1,,다목적,4,,,,2012-07,064-760-6371,33.287929,126.626305,2018-07-31
"제주특별자치도 서귀포시",제주특별자치도 서귀포시 남원읍 한남리 359-9,,다목적,4,,,,2012-07,064-760-6372,33.311649,126.695160,2018-07-31
"제주특별자치도 서귀포시",제주특별자치도 서귀포시 남원읍 의귀리 1011,,다목적,4,,,,2012-07,064-760-6373,33.300809,126.721090,2018-07-31
"제주특별자치도 서귀포시",제주특별자치도 서귀포시 남원읍 신흥리 1770-10,,다목적,4,,,,2012-07,064-760-6374,33.319927,126.748127,2018-07-31
"제주특별자치도 서귀포시",제주특별자치도 서귀포시 표선면 토산리 1356-1,,다목적,4,,,,2012-07,064-760-6375,33.326232,126.765653,2018-07-31
"제주특별자치도 서귀포시",제주특별자치도 서귀포시 표선면 세성로,,다목적,4,,,,2012-07,064-760-6376,33.331793,126.798304,2018-07-31
"제주특별자치도 서귀포시",제주특별자치도 서귀포시 표선면 성읍리 553,,다목적,4,,,,2012-07,064-760-6377,33.390475,126.801287,2018-07-31
"제주특별자치도 서귀포시",제주특별자치도 서귀포시 표선면 가시리 1879,,다목적,4,,,,2012-07,064-760-6378,33.353590,126.771735,2018-07-31
"제주특별자치도 서귀포시",제주특별자치도 서귀포시 성산읍 신풍리 824,,다목적,4,,,,2012-07,064-760-6379,33.361201,126.838895,2018-07-31
"제주특별자치도 서귀포시",제주특별자치도 서귀포시 성산읍 환해장성로 111번길 21-12,,다목적,4,,,,2012-07,064-760-6380,33.382227,126.877336,2018-07-31
"제주특별자치도 서귀포시",제주특별자치도 서귀포시 성산읍 삼달리 723-1,,다목적,4,,,,2012-07,064-760-6381,33.374256,126.846783,2018-07-31
"제주특별자치도 서귀포시",제주특별자치도 서귀포시 성산읍 난산리 324-1,,다목적,4,,,,2012-07,064-760-6382,33.401010,126.872169,2018-07-31
"제주특별자치도 서귀포시",제주특별자치도 서귀포시 성산읍 수산리 703-3,,다목적,4,,,,2012-07,064-760-6383,33.446137,126.882889,2018-07-31
"제주특별자치도 서귀포시",제주특별자치도 서귀포시 대정읍 최남단하안로15번길 12,,다목적,6,,,,2012-04,064-760-6212,33.253376,126.555202,2018-07-31
"제주특별자치도 서귀포시",제주특별자치도 서귀포시 안덕면 화순중앙로12번길 30-9,,다목적,4,,,,2016-08,064-760-6262,33.250567,126.331528,2018-07-31
"제주특별자치도 서귀포시",제주특별자치도 서귀포시 대정읍 가파로67번길 30,,다목적,3,,,,2010-04,064-760-6384,33.167967,126.271728,2018-07-31
"제주특별자치도 서귀포시",제주특별자치도 서귀포시 대정읍 마라로101번길 22,,다목적,3,,,,2010-04,064-760-6385,33.116482,126.267285,2018-07-31
"제주특별자치도 서귀포시",제주특별자치도 서귀포시 대정읍 도원로 37,,다목적,4,,,,2016-08,064-760-6386,33.277514,126.174262839,2018-07-31
"제주특별자치도 서귀포시",제주특별자치도 서귀포시 대정읍 중산간서로 2600,,다목적,4,,,,2016-08,064-760-6387,33.265926,126.259423,2018-07-31
"제주특별자치도 서귀포시",제주특별자치도 서귀포시 대정읍 중산간서로 2877,,다목적,4,,,,2016-08,064-760-6388,33.274419,126.234252,2018-07-31
"제주특별자치도 서귀포시",제주특별자치도 서귀포시 대정읍 중산간서로 2364,,다목적,4,,,,2016-08,064-760-6389,33.274036,126.280671,2018-07-31
"제주특별자치도 서귀포시",제주특별자치도 서귀포시 안덕면 산방로 349,,다목적,3,,,,2010-04,064-760-6390,33.232296,126.299319,2018-07-31
"제주특별자치도 서귀포시",제주특별자치도 서귀포시 안덕면 중산간서로 1811,,다목적,4,,,,2016-08,064-760-6391,33.286619,126.328972,2018-07-31
"제주특별자치도 서귀포시",제주특별자치도 서귀포시 안덕면 중산간서로 2118,,다목적,4,,,,2016-08,064-760-6392,33.284138,126.299134,2018-07-31
"제주특별자치도 서귀포시",제주특별자치도 서귀포시 안덕면 한창로145번길 11,,다목적,4,,,,2016-08,064-760-6393,33.274374,126.362812,2018-07-31
"제주특별자치도 서귀포시",제주특별자치도 서귀포시 안덕면 대평감산로 19,,다목적,4,,,,2016-08,064-760-6394,33.235459,126.367081,2018-07-31
"제주특별자치도 서귀포시",제주특별자치도 서귀포시 하모중앙로 20,,다목적,5,,,,2011-04,064-760-4017,33.226754,126.252083,2018-07-31
"제주특별자치도 서귀포시",제주특별자치도 서귀포시 대정읍 서삼중로 128,,다목적,3,,,,2011-04,064-760-4017,33.273454,126.199041,2018-07-31
"제주특별자치도 서귀포시",제주특별자치도 서귀포시 남원읍 남원리 1310-3,,다목적,2,,,,2016-05,064-760-4162,33.2787095,126.7136056,2018-07-31
"제주특별자치도 서귀포시",제주특별자치도 서귀포시 남원읍 207-10,,다목적,2,,,,2017-07,064-760-4162,33.2799141,126.7207056,2018-07-31
"제주특별자치도 서귀포시",제주특별자치도 서귀포시 남원읍 남원리 205-18,,다목적,2,,,,2016-05,064-760-4162,33.2799353,126.7204662,2018-07-31
"제주특별자치도 서귀포시",제주특별자치도 서귀포시 남원읍 남원리 2419-9,,다목적,2,,,,2017-07,064-760-4162,33.2745991,126.6953594,2018-07-31
"제주특별자치도 서귀포시",제주특별자치도 서귀포시 남원읍 남원리 128-9,,다목적,4,,,,2018-04,064-760-4162,33.2773898,126.7184317,2018-07-31
"제주특별자치도 서귀포시",제주특별자치도 서귀포시 남원읍 남원리 70-3,,다목적,2,,,,2017-07,064-760-4162,33.2803879,126.7240611,2018-07-31
"제주특별자치도 서귀포시",제주특별자치도 서귀포시 남원읍 남원리 84-2,,다목적,2,,,,2017-07,064-760-4162,33.2788184,126.7214486,2018-07-31
"제주특별자치도 서귀포시",제주특별자치도 서귀포시 남원읍 남원리 1500,,다목적,2,,,,2017-07,064-760-4162,33.2809983,126.709130,2018-07-31
"제주특별자치도 서귀포시",제주특별자치도 서귀포시 남원읍 남원리 1229-1,,다목적,2,,,,2018-04,064-760-4162,33.2843205,126.7150208,2018-07-31
"제주특별자치도 서귀포시",제주특별자치도 서귀포시 남원읍 남원리 1451-4,,다목적,2,,,,2017-07,064-760-4162,33.2757689,126.7062648,2018-07-31
"제주특별자치도 서귀포시",제주특별자치도 서귀포시 남원읍 18-6,,다목적,2,,,,2017-07,064-760-4162,33.2799141,126.7207056,2018-07-31
"제주특별자치도 서귀포시",제주특별자치도 서귀포시 남원읍 남원리 381,,다목적,2,,,,2016-05,064-760-4162,33.2942215,126.7113789,2018-07-31
"제주특별자치도 서귀포시",제주특별자치도 서귀포시 남원읍 남원리 312-1,,다목적,2,,,,2017-07,064-760-4162,33.2899294,126.7119594,2018-07-31
"제주특별자치도 서귀포시",제주특별자치도 서귀포시 남원읍 태흥리 1804-1,,다목적,2,,,,2018-04,064-760-4162,33.281671,126.7344787,2018-07-31
"제주특별자치도 서귀포시",제주특별자치도 서귀포시 남원읍 태흥리 1264-2,,다목적,2,,,,2018-04,064-760-4162,33.2922889,126.7393618,2018-07-31
"제주특별자치도 서귀포시",제주특별자치도 서귀포시 남원읍 태흥리 1337,,다목적,2,,,,2018-04,064-760-4162,33.2922889,126.7393618,2018-07-31
"제주특별자치도 서귀포시",제주특별자치도 서귀포시 남원읍 태흥리 553-8,,다목적,2,,,,2017-07,064-760-4162,33.2922889,126.7393618,2018-07-31
"제주특별자치도 서귀포시",제주특별자치도 서귀포시 남원읍 태흥리 950-3,,다목적,2,,,,2018-04,064-760-4162,33.2922889,126.7393618,2018-07-31
"제주특별자치도 서귀포시",제주특별자치도 서귀포시 남원읍 태흥리 974-3,,다목적,2,,,,2017-07,064-760-4162,33.2922889,126.7393618,2018-07-31
"제주특별자치도 서귀포시",제주특별자치도 서귀포시 남원읍 태흥리 63-6,,다목적,2,,,,2016-04,064-760-4162,33.2922889,126.7393618,2018-07-31
"제주특별자치도 서귀포시",제주특별자치도 서귀포시 남원읍 한남리 673-4,,다목적,2,,,,2017-07,064-760-4162,33.3352599,126.6681117,2018-07-31
"제주특별자치도 서귀포시",제주특별자치도 서귀포시 남원읍 한남리 58,,다목적,2,,,,2017-07,064-760-4162,33.3352599,126.6681117,2018-07-31
"제주특별자치도 서귀포시",제주특별자치도 서귀포시 남원읍 한남리 764-3,,다목적,2,,,,2018-04,064-760-4162,33.3258417,126.6696618,2018-07-31
"제주특별자치도 서귀포시",제주특별자치도 서귀포시 남원읍 수망리 301-2,,다목적,2,,,,2018-04,064-760-4162,33.3285029,126.7137271,2018-07-31
"제주특별자치도 서귀포시",제주특별자치도 서귀포시 남원읍 의귀리 1433,,다목적,2,,,,2017-06,064-760-4162,33.3094175,126.712866,2018-07-31
"제주특별자치도 서귀포시",제주특별자치도 서귀포시 남원읍 의귀리 419-6,,다목적,2,,,,2017-06,064-760-4162,33.3124718,126.7218242,2018-07-31
"제주특별자치도 서귀포시",제주특별자치도 서귀포시 남원읍 의귀리 1628-2,,다목적,2,,,,2017-06,064-760-4162,33.3151593,126.7155049,2018-07-31
"제주특별자치도 서귀포시",제주특별자치도 서귀포시 남원읍 의귀리 964-1,,다목적,2,,,,2018-04,064-760-4162,33.3020551,126.7195249,2018-07-31
"제주특별자치도 서귀포시",제주특별자치도 서귀포시 남원읍 의귀리 1482-5,,다목적,2,,,,2017-06,064-760-4162,33.3104178,126.7135138,2018-07-31
"제주특별자치도 서귀포시",제주특별자치도 서귀포시 남원읍 신흥리 2481-1,,다목적,2,,,,2017-06,064-760-4162,33.3372665,126.7408476,2018-07-31
"제주특별자치도 서귀포시",제주특별자치도 서귀포시 남원읍 신흥리 1254-1,,다목적,2,,,,2018-04,064-760-4162,33.3372665,126.7408476,2018-07-31
"제주특별자치도 서귀포시",제주특별자치도 서귀포시 남원읍 위미리 2885-5,,다목적,2,,,,2016-04,064-760-4162,33.2744356,126.6568976,2018-07-31
"제주특별자치도 서귀포시",제주특별자치도 서귀포시 남원읍 위미리 4140-5,,다목적,2,,,,2016-04,064-760-4162,33.3060336,126.6580882,2018-07-31
"제주특별자치도 서귀포시",제주특별자치도 서귀포시 남원읍 위미리 491-1,,다목적,2,,,,2017-06,064-760-4162,33.2731304,126.6759533,2018-07-31
"제주특별자치도 서귀포시",제주특별자치도 서귀포시 남원읍 위미리 1664-3,,다목적,2,,,,2016-04,064-760-4162,33.2731304,126.6759533,2018-07-31
"제주특별자치도 서귀포시",제주특별자치도 서귀포시 남원읍 위미리 220-7,,다목적,2,,,,2018-04,064-760-4162,33.275292,126.6686352,2018-07-31
"제주특별자치도 서귀포시",제주특별자치도 서귀포시 남원읍 하례리 36-5,,다목적,2,,,,2017-06,064-760-4162,33.288095,126.607030,2018-07-31
"제주특별자치도 서귀포시",제주특별자치도 서귀포시 남원읍 하례리 605-3,,다목적,2,,,,2017-06,064-760-4162,33.3420367,126.5884214,2018-07-31
"제주특별자치도 서귀포시",제주특별자치도 서귀포시 남원읍 하례리 1713,,다목적,2,,,,2017-06,064-760-4162,33.3420367,126.5884214,2018-07-31
"제주특별자치도 서귀포시",제주특별자치도 서귀포시 남원읍 신례리 855-2,,다목적,2,,,,2016-04,064-760-4162,33.299995,126.6297939,2018-07-31
"제주특별자치도 서귀포시",제주특별자치도 서귀포시 남원읍 신례리 730-1,,다목적,2,,,,2018-04,064-760-4162,33.2830034,126.6293628,2018-07-31
"제주특별자치도 서귀포시",제주특별자치도 서귀포시 남원읍 신례리 1085-1,,다목적,2,,,,2018-04,064-760-4162,33.299995,126.6297939,2018-07-31
"제주특별자치도 서귀포시",제주특별자치도 서귀포시 남원읍 신례리 1641-5,,다목적,2,,,,2017-06,064-760-4162,33.299995,126.6297939,2018-07-31
"제주특별자치도 서귀포시",제주특별자치도 서귀포시 남원읍 신례리 26-7,,다목적,2,,,,2017-10,064-760-4162,33.299995,126.6297939,2018-07-31
"제주특별자치도 서귀포시",제주특별자치도 서귀포시 남원읍 신례리 74-1,,다목적,2,,,,2018-04,064-760-4162,33.3709058,126.5704745,2018-07-31
"제주특별자치도 서귀포시",제주특별자치도 서귀포시 남원읍 신례리 72-19,,다목적,2,,,,2017-10,064-760-4162,33.3709058,126.5704745,2018-07-31
"제주특별자치도 서귀포시",제주특별자치도 서귀포시 남원읍 남원리 1216,,다목적,2,,,,2017-10,064-760-4165,33.2862498,126.7163902,2018-07-31
"제주특별자치도 서귀포시",제주특별자치도 서귀포시 남원읍 남원리 978,,다목적,2,,,,2017-10,064-760-4165,33.2957558,126.7063242,2018-07-31
"제주특별자치도 서귀포시",제주특별자치도 서귀포시 남원읍 태흥리 2008,,다목적,2,,,,2017-10,064-760-4165,33.2833474,126.7348549,2018-07-31
"제주특별자치도 서귀포시",제주특별자치도 서귀포시 남원읍 위미리 2702,,다목적,2,,,,2017-10,064-760-4165,33.3060336,126.6580882,2018-07-31
"제주특별자치도 서귀포시",제주특별자치도 서귀포시 남원읍 위미리 244-14,,다목적,2,,,,2017-10,064-760-4165,33.3060336,126.6580882,2018-07-31
"제주특별자치도 서귀포시",제주특별자치도 서귀포시 남원읍 하례리 1450,,다목적,2,,,,2017-10,064-760-4165,33.3420367,126.5884214,2018-07-31
"제주특별자치도 서귀포시",제주특별자치도 서귀포시 남원읍 태위로 695(남원리205-1),,다목적,4,,,,2015-04,064-760-4114,33.2797843,126.7205951,2018-07-31
"제주특별자치도 서귀포시",제주특별자치도 서귀포시 남원읍 태위로 695(남원리205-1),,다목적,9,,,,2015-04,064-760-4114,33.2797843,126.7205951,2018-07-31
"제주특별자치도 서귀포시",제주특별자치도 서귀포시 남원읍 태위로 695(남원리205-1),,다목적,1,,,,2013-02,064-760-4114,33.2797843,126.7205951,2018-07-31
"제주특별자치도 서귀포시",제주특별자치도 서귀포시 성산읍 일주동로 4330,,다목적,7,,,,2016-04,064-760-4215,33.442145,126.911059,2018-07-31
"제주특별자치도 서귀포시",제주특별자치도 서귀포시 성산읍 일주동로 4330,,다목적,1,,,,2013-02,064-760-4235,33.442145,126.911059,2018-07-31
"제주특별자치도 서귀포시",제주특별자치도 서귀포시 고성오조로 93 (고성오일시장),,다목적,12,,,,2015-04,064-760-4284,33.451776,126.912796,2018-07-31
"제주특별자치도 서귀포시",제주특별자치도 서귀포시 성산읍 신풍리 1384(45번클린하우스),,다목적,1,,,,2018-04,064-760-4262,33.363803,126.827700,2018-07-31
"제주특별자치도 서귀포시",제주특별자치도 서귀포시 성산읍 고성리 298-1(35번클린하우스),,다목적,1,,,,2018-04,064-760-4262,33.449554,126.916081,2018-07-31
"제주특별자치도 서귀포시",제주특별자치도 서귀포시 성산읍 고성리 1138-1(1번클린하우스),,다목적,2,,,,2018-04,064-760-4262,33.449618,126.910133,2018-07-31
"제주특별자치도 서귀포시",제주특별자치도 서귀포시 성산읍 고성리 1065-4(2번클린하우스),,다목적,2,,,,2018-04,064-760-4262,33.444575,126.909503,2018-07-31
"제주특별자치도 서귀포시",제주특별자치도 서귀포시 성산읍 시흥리 700-1(18번클린하우스),,다목적,2,,,,2018-04,064-760-4262,33.472232,126.899767,2018-07-31
"제주특별자치도 서귀포시",제주특별자치도 서귀포시 성산읍 오조리 61-26(20번클린하우스),,다목적,3,,,,2018-04,064-760-4262,33.453444,126.914440,2018-07-31
"제주특별자치도 서귀포시",제주특별자치도 서귀포시 성산읍 신풍리 17-3(33번클린하우스),,다목적,2,,,,2018-04,064-760-4262,33.362284,126.867336,2018-07-31
"제주특별자치도 서귀포시",제주특별자치도 서귀포시 성산읍 고성리 1144-3(36번클린하우스),,다목적,2,,,,2018-04,064-760-4262,33.444575,126.909503,2018-07-31
"제주특별자치도 서귀포시",제주특별자치도 서귀포시 성산읍 성산리 347-15(40번클린하우스),,다목적,2,,,,2018-04,064-760-4262,33.470769,126.930833,2018-07-31
"제주특별자치도 서귀포시",제주특별자치도 서귀포시 성산읍 수산리 2433-1(43번클린하우스),,다목적,2,,,,2018-04,064-760-4262,33.441924,126.862898,2018-07-31
"제주특별자치도 서귀포시",제주특별자치도 서귀포시 성산읍 고성리 1618-3(12번클린하우스),,다목적,2,,,,2018-04,064-760-4262,33.445304,126.905165,2018-07-31
"제주특별자치도 서귀포시",제주특별자치도 서귀포시 성산읍 시흥리 763-3(14번클린하우스),,다목적,2,,,,2018-04,064-760-4262,33.473974,126.899448,2018-07-31
"제주특별자치도 서귀포시",제주특별자치도 서귀포시 성산읍 시흥리 980-98(16번클린하우스),,다목적,2,,,,2018-04,064-760-4262,33.475497,126.900335,2018-07-31
"제주특별자치도 서귀포시",제주특별자치도 서귀포시 성산읍 고성리 1040-1(24번클린하우스),,다목적,2,,,,2018-04,064-760-4262,33.444582,126.911331,2018-07-31
"제주특별자치도 서귀포시",제주특별자치도 서귀포시 성산읍 신천리 7-1(25번클린하우스),,다목적,2,,,,2018-04,064-760-4262,33.349298,126.863640,2018-07-31
"제주특별자치도 서귀포시",제주특별자치도 서귀포시 성산읍 삼달리 766-1(27번클린하우스),,다목적,2,,,,2018-04,064-760-4262,33.382288,126.834776,2018-07-31
"제주특별자치도 서귀포시",제주특별자치도 서귀포시 성산읍 오조리 870(30번클린하우스),,다목적,2,,,,2018-04,064-760-4262,33.458636,126.914098,2018-07-31
"제주특별자치도 서귀포시",제주특별자치도 서귀포시 성산읍 시흥리 12-24(38번클린하우스),,다목적,2,,,,2018-04,064-760-4262,33.474590,126.905450,2018-07-31
"제주특별자치도 서귀포시",제주특별자치도 서귀포시 성산읍 성산리 234-29(42번클린하우스),,다목적,2,,,,2018-04,064-760-4262,33.464784,126.932389,2018-07-31
"제주특별자치도 서귀포시",제주특별자치도 서귀포시 성산읍 고성리 917-1(47번클린하우스),,다목적,2,,,,2018-04,064-760-4262,33.441415,126.910942,2018-07-31
"제주특별자치도 서귀포시",제주특별자치도 서귀포시 성산읍 고성리 1188-2(50번클린하우스),,다목적,2,,,,2018-04,064-760-4262,33.444575,126.909503,2018-07-31
"제주특별자치도 서귀포시",제주특별자치도 서귀포시 성산읍 고성리 336-2(51번클린하우스),,다목적,2,,,,2018-04,064-760-4262,33.447159,126.915490,2018-07-31
"제주특별자치도 서귀포시",제주특별자치도 서귀포시 성산읍 고성리 302-4(52번클린하우스),,다목적,2,,,,2018-04,064-760-4262,33.444575,126.909503,2018-07-31
"제주특별자치도 서귀포시",제주특별자치도 서귀포시 성산읍 오조리 675-1(49번클린하우스),,다목적,2,,,,2018-04,064-760-4262,33.462853,126.910914,2018-07-31
"제주특별자치도 서귀포시",제주특별자치도 서귀포시 성산읍 난산리 1108(21번클린하우스),,다목적,2,,,,2018-04,064-760-4262,33.400817,126.871493,2018-07-31
"제주특별자치도 서귀포시",제주특별자치도 서귀포시 안덕면 화순서서로 44,,다목적,6,,,,2014-10,064-760-3744,33.255277,126.330726,2018-07-31
"제주특별자치도 서귀포시",제주특별자치도 서귀포시 안덕면 화순리 776-8,,다목적,57,,,,2016-04,064-760-4362,33.239799,126.335764,2018-07-31
"제주특별자치도 서귀포시",제주특별자치도 서귀포시 안덕면 화순리 2107,,다목적,1,,,,2016-04,064-760-4362,33.253452,126.327880,2018-07-31
"제주특별자치도 서귀포시",제주특별자치도 서귀포시 안덕면 화순리 318-16,,다목적,1,,,,2016-04,064-760-4362,33.247435,126.335577,2018-07-31
"제주특별자치도 서귀포시",제주특별자치도 서귀포시 안덕면 화순리 1141-1,,다목적,1,,,,2016-04,064-760-4362,33.250889,126.334555,2018-07-31
"제주특별자치도 서귀포시",제주특별자치도 서귀포시 안덕면 화순리 1069-5,,다목적,1,,,,2016-04,064-760-4362,33.246558,126.334722,2018-07-31
"제주특별자치도 서귀포시",제주특별자치도 서귀포시 안덕면 화순리 363-3,,다목적,1,,,,2016-04,064-760-4362,33.244030,126.336142,2018-07-31
"제주특별자치도 서귀포시",제주특별자치도 서귀포시 안덕면 화순리 833-2,,다목적,1,,,,2016-04,064-760-4362,33.2407219,126.3334579,2018-07-31
"제주특별자치도 서귀포시",제주특별자치도 서귀포시 안덕면 화순리 1999,,다목적,1,,,,2016-04,064-760-4362,33.252005,126.3262375,2018-07-31
"제주특별자치도 서귀포시",제주특별자치도 서귀포시 안덕면 화순리 763-5,,다목적,1,,,,2016-04,064-760-4362,33.2403437,126.3380838,2018-07-31
"제주특별자치도 서귀포시",제주특별자치도 서귀포시 안덕면 화순리 1202-1,,다목적,1,,,,2016-04,064-760-4362,33.2525325,126.3290687,2018-07-31
"제주특별자치도 서귀포시",제주특별자치도 서귀포시 안덕면 화순리 353-6,,다목적,1,,,,2016-04,064-760-4362,33.2442709,126.3366409,2018-07-31
"제주특별자치도 서귀포시",제주특별자치도 서귀포시 안덕면 사계리 2292-4,,다목적,1,,,,2016-04,064-760-4362,33.2272147,126.2999339,2018-07-31
"제주특별자치도 서귀포시",제주특별자치도 서귀포시 안덕면 사계리 129-6,,다목적,1,,,,2016-04,064-760-4362,33.2327836,126.3101303,2018-07-31
"제주특별자치도 서귀포시",제주특별자치도 서귀포시 안덕면 사계리 2147-32,,다목적,1,,,,2016-04,064-760-4362,33.2282973,126.3065804,2018-07-31
"제주특별자치도 서귀포시",제주특별자치도 서귀포시 안덕면 사계리 1838-2,,다목적,1,,,,2016-04,064-760-4362,33.2330716,126.3015637,2018-07-31
"제주특별자치도 서귀포시",제주특별자치도 서귀포시 안덕면 사계리 2249-2,,다목적,1,,,,2016-04,064-760-4362,33.230639,126.2992852,2018-07-31
"제주특별자치도 서귀포시",제주특별자치도 서귀포시 안덕면 사계리 3596,,다목적,1,,,,2016-04,064-760-4362,33.2500103,126.3227658,2018-07-31
"제주특별자치도 서귀포시",제주특별자치도 서귀포시 안덕면 사계리 2449,,다목적,1,,,,2016-04,064-760-4362,33.2292405,126.2930826,2018-07-31
"제주특별자치도 서귀포시",제주특별자치도 서귀포시 안덕면 덕수리 2339-1,,다목적,1,,,,2016-04,064-760-4362,33.2545547,126.3071126,2018-07-31
"제주특별자치도 서귀포시",제주특별자치도 서귀포시 안덕면 덕수리 792-3,,다목적,1,,,,2016-04,064-760-4362,33.2542988,126.311254,2018-07-31
"제주특별자치도 서귀포시",제주특별자치도 서귀포시 안덕면 덕수리 1474,,다목적,1,,,,2016-04,064-760-4362,33.2782427,126.3139003,2018-07-31
"제주특별자치도 서귀포시",제주특별자치도 서귀포시 안덕면 덕수리 1921-1,,다목적,1,,,,2016-04,064-760-4362,33.2638642,126.3040874,2018-07-31
"제주특별자치도 서귀포시",제주특별자치도 서귀포시 안덕면 서광리2051-2,,다목적,1,,,,2016-04,064-760-4362,33.2828458,126.2979549,2018-07-31
"제주특별자치도 서귀포시",제주특별자치도 서귀포시 안덕면 서광리1803-3,,다목적,1,,,,2016-04,064-760-4362,33.2884065,126.304657,2018-07-31
"제주특별자치도 서귀포시",제주특별자치도 서귀포시 안덕면 서광리1856-2,,다목적,1,,,,2016-04,064-760-4362,33.2883749,126.3030054,2018-07-31
"제주특별자치도 서귀포시",제주특별자치도 서귀포시 안덕면 서광리2071-2,,다목적,1,,,,2016-04,064-760-4362,33.2846553,126.3011324,2018-07-31
"제주특별자치도 서귀포시",제주특별자치도 서귀포시 안덕면 서광리2470,,다목적,1,,,,2016-04,064-760-4362,33.2815938,126.3001013,2018-07-31
"제주특별자치도 서귀포시",제주특별자치도 서귀포시 안덕면 서광리2165-5,,다목적,1,,,,2016-04,064-760-4362,33.2851203,126.3025365,2018-07-31
"제주특별자치도 서귀포시",제주특별자치도 서귀포시 안덕면 서광리366-9,,다목적,1,,,,2016-04,064-760-4362,33.2894174,126.3254825,2018-07-31
"제주특별자치도 서귀포시",제주특별자치도 서귀포시 안덕면 서광리324-3,,다목적,1,,,,2016-04,064-760-4362,33.287702,126.3293191,2018-07-31
"제주특별자치도 서귀포시",제주특별자치도 서귀포시 안덕면 서광리74-1,,다목적,1,,,,2016-04,064-760-4362,33.2852395,126.3303484,2018-07-31
"제주특별자치도 서귀포시",제주특별자치도 서귀포시 안덕면 서광리340-1,,다목적,1,,,,2016-04,064-760-4362,33.2873355,126.3265964,2018-07-31
"제주특별자치도 서귀포시",제주특별자치도 서귀포시 안덕면 서광리212-6,,다목적,1,,,,2016-04,064-760-4362,33.2853016,126.3278932,2018-07-31
"제주특별자치도 서귀포시",제주특별자치도 서귀포시 안덕면 동광리 958-1,,다목적,1,,,,2016-04,064-760-4362,33.3084835,126.3355813,2018-07-31
"제주특별자치도 서귀포시",제주특별자치도 서귀포시 안덕면 동광리 1590,,다목적,1,,,,2016-04,064-760-4362,33.3049476,126.3381194,2018-07-31
"제주특별자치도 서귀포시",제주특별자치도 서귀포시 안덕면 동광리 491-8,,다목적,1,,,,2016-04,064-760-4362,33.3101462,126.3493631,2018-07-31
"제주특별자치도 서귀포시",제주특별자치도 서귀포시 안덕면 동광리 5-157,,다목적,1,,,,2016-04,064-760-4362,33.3134199,126.3597317,2018-07-31
"제주특별자치도 서귀포시",제주특별자치도 서귀포시 안덕면 상천리 470-22,,다목적,1,,,,2016-04,064-760-4362,33.3073042,126.3824535,2018-07-31
"제주특별자치도 서귀포시",제주특별자치도 서귀포시 안덕면 상창리 650-6,,다목적,1,,,,2016-04,064-760-4362,33.2720203,126.3655001,2018-07-31
"제주특별자치도 서귀포시",제주특별자치도 서귀포시 안덕면 상창리 621,,다목적,1,,,,2016-04,064-760-4362,33.2739917,126.3628485,2018-07-31
"제주특별자치도 서귀포시",제주특별자치도 서귀포시 안덕면 상창리 594-16,,다목적,1,,,,2016-04,064-760-4362,33.2735555,126.3645307,2018-07-31
"제주특별자치도 서귀포시",제주특별자치도 서귀포시 안덕면 창천리 160,,다목적,1,,,,2016-04,064-760-4362,33.2645868,126.3702955,2018-07-31
"제주특별자치도 서귀포시",제주특별자치도 서귀포시 안덕면 창천리 106-4,,다목적,1,,,,2016-04,064-760-4362,33.2673887,126.3692582,2018-07-31
"제주특별자치도 서귀포시",제주특별자치도 서귀포시 안덕면 창천리 252-1,,다목적,1,,,,2016-04,064-760-4362,33.2648208,126.3652392,2018-07-31
"제주특별자치도 서귀포시",제주특별자치도 서귀포시 안덕면 창천리 380-1,,다목적,1,,,,2016-04,064-760-4362,33.2627266,126.3665049,2018-07-31
"제주특별자치도 서귀포시",제주특별자치도 서귀포시 안덕면 창천리 913-3,,다목적,1,,,,2016-04,064-760-4362,33.2373574,126.3623371,2018-07-31
"제주특별자치도 서귀포시",제주특별자치도 서귀포시 안덕면 창천리 930-4,,다목적,1,,,,2016-04,064-760-4362,33.2384298,126.3659411,2018-07-31
"제주특별자치도 서귀포시",제주특별자치도 서귀포시 안덕면 창천리 772-1,,다목적,1,,,,2016-04,064-760-4362,33.2357827,126.368259,2018-07-31
"제주특별자치도 서귀포시",제주특별자치도 서귀포시 안덕면 창천리 777-5,,다목적,1,,,,2016-04,064-760-4362,33.2347424,126.3672495,2018-07-31
"제주특별자치도 서귀포시",제주특별자치도 서귀포시 안덕면 감산리 346,,다목적,1,,,,2016-04,064-760-4362,33.2579727,126.3533584,2018-07-31
"제주특별자치도 서귀포시",제주특별자치도 서귀포시 안덕면 감산리 126-2,,다목적,1,,,,2016-04,064-760-4362,33.2603571,126.3565353,2018-07-31
"제주특별자치도 서귀포시",제주특별자치도 서귀포시 안덕면 상창리 2449-4,,다목적,1,,,,2016-04,064-760-4362,33.2646492,126.3466947,2018-07-31
"제주특별자치도 서귀포시",제주특별자치도 서귀포시 안덕면 감산리 1509-3,,다목적,1,,,,2016-04,064-760-4362,33.2570487,126.3495411,2018-07-31
"제주특별자치도 서귀포시",제주특별자치도 서귀포시 안덕면 감산리 440,,다목적,1,,,,2016-04,064-760-4362,33.2558854,126.3518968,2018-07-31
"제주특별자치도 서귀포시",제주특별자치도 서귀포시 안덕면 감산리 107-1,,다목적,1,,,,2016-04,064-760-4362,33.2585911,126.3578978,2018-07-31
"제주특별자치도 서귀포시",제주특별자치도 서귀포시 안덕면 감산리 265,,다목적,1,,,,2016-04,064-760-4362,33.2612648,126.3517034,2018-07-31
"제주특별자치도 서귀포시",제주특별자치도 서귀포시 안덕면 화순리 1989,,다목적,1,,,,2016-04,064-760-4362,33.2504568,126.3305259,2018-07-31
"제주특별자치도 서귀포시",제주특별자치도 서귀포시 민속해안로 592,,다목적,4,,,,2014-10,064-760-4482,33.325791,126.842405,2018-07-31
"제주특별자치도 서귀포시",제주특별자치도 서귀포시 표선읍 세화리 1652-16,,다목적,3,,,,2015-04,064-760-4474,33.3177114,126.7901856,2018-07-31
"제주특별자치도 서귀포시",제주특별자치도 서귀포시 표선면 표선백사로 111 천혜가든 앞,,다목적,1,,,,2016-04,064-760-4463,33.325241,126.836337,2018-07-31
"제주특별자치도 서귀포시",제주특별자치도 서귀포시 표선면 표선리 1005-6 농협창고 앞,,다목적,1,,,,2016-04,064-760-4463,33.321382,126.829456,2018-07-31
"제주특별자치도 서귀포시",제주특별자치도 서귀포시 표선면 표선리 959-2 무기재마을 입구,,다목적,1,,,,2016-04,064-760-4463,33.3219075,126.8338462,2018-07-31
"제주특별자치도 서귀포시",제주특별자치도 서귀포시 표선면 하천리 329-5 마을 입구,,다목적,1,,,,2016-04,064-760-4463,33.3416661,126.8449279,2018-07-31
"제주특별자치도 서귀포시",제주특별자치도 서귀포시 표선면 가시리 2528-3 오뚜기편의점 맞은편,,다목적,1,,,,2016-04,064-760-4463,33.3615823,126.7657768,2018-07-31
"제주특별자치도 서귀포시",제주특별자치도 서귀포시 표선면 토산1리 332-12 알토산 복지회관 앞,,다목적,1,,,,2016-08,064-760-4463,33.3091468,126.7830732,2018-07-31
"제주특별자치도 서귀포시",제주특별자치도 서귀포시 표선면 토산1리 1369-5 토산1리사무소 옆,,다목적,1,,,,2016-08,064-760-4463,33.3258175,126.7654908,2018-07-31
"제주특별자치도 서귀포시",제주특별자치도 서귀포시 표선면 토산리332-12,,다목적,3,,,,2016-08,064-760-4474,33.3091468,126.7830732,2018-07-31
"제주특별자치도 서귀포시",제주특별자치도 서귀포시 표선중앙로 74,,다목적,16,,,,2017-10,064-760-4416,33.326225,126.832111,2018-07-31
"제주특별자치도 서귀포시",제주특별자치도 서귀포시 표선중앙로 43번길 20 제일주택 앞,,다목적,1,,,,2017-10,064-760-4463,33.328422,126.832880,2018-07-31
"제주특별자치도 서귀포시",제주특별자치도 서귀포시 표선면 표선리 763-1 서상동 원룸 앞,,다목적,1,,,,2017-10,064-760-4463,33.323749,126.829082,2018-07-31
"제주특별자치도 서귀포시",제주특별자치도 서귀포시 표선면 표선리 40-10 어촌계식당 앞,,다목적,1,,,,2017-10,064-760-4463,33.322533,126.822867,2018-07-31
"제주특별자치도 서귀포시",제주특별자치도 서귀포시 표선면 표선면 일주동로 5915 표선라이온스클럽 옆,,다목적,1,,,,2017-10,064-760-4463,33.328670,126.822573,2018-07-31
"제주특별자치도 서귀포시",제주특별자치도 서귀포시 성산읍 성읍1리 987-1 고려삼계탕 앞,,다목적,1,,,,2017-10,064-760-4463,33.384360,126.802877,2018-07-31
"제주특별자치도 서귀포시",제주특별자치도 서귀포시 표선면 가시리 2105-2 향촌마을식당 인근,,다목적,1,,,,2017-10,064-760-4463,33.348896,126.773545,2018-07-31
"제주특별자치도 서귀포시",제주특별자치도 서귀포시 표선면 표선리 1001-1 재활용도움센터,,다목적,4,,,,2017-10,064-760-4463,33.322186,126.830709,2018-07-31
"제주특별자치도 서귀포시",제주특별자치도 서귀포시 성산읍 성읍리468-2,,다목적,5,,,,2017-04,064-760-4474,33.3977988,126.8032915,2018-07-31
"제주특별자치도 서귀포시",제주특별자치도 서귀포시 표선면 하천리 788-2,,다목적,5,,,,2017-04,064-760-4474,33.353588,126.836359,2018-07-31
"제주특별자치도 서귀포시",제주특별자치도 서귀포시 표선면 표선동서로 254-9,,다목적,1,,,,2017-04,064-760-4488,33.326226,126.833681,2018-07-31
"제주특별자치도 서귀포시",제주특별자치도 서귀포시 표선면 표선중앙로 87,,다목적,1,,,,2017-04,064-760-4488,33.325935,126.833332,2018-07-31
"제주특별자치도 서귀포시",제주특별자치도 서귀포시 표선면 표선동서로 193번길 42,,다목적,1,,,,2017-04,064-760-4488,33.3235976,126.8277601,2018-07-31
"제주특별자치도 서귀포시",제주특별자치도 서귀포시 표선면 표선동서로 193번길 17,,다목적,1,,,,2017-04,064-760-4488,33.321735,126.828571,2018-07-31
"제주특별자치도 서귀포시",제주특별자치도 서귀포시 표선면 표선리 699-1,,다목적,1,,,,2018-04,064-760-4463,33.3260671,126.8320866,2018-07-31
"제주특별자치도 서귀포시",제주특별자치도 서귀포시 표선면 표선리 772,,다목적,1,,,,2018-04,064-760-4463,33.3231117,126.8312013,2018-07-31
"제주특별자치도 서귀포시",제주특별자치도 서귀포시 성산읍 성읍리 2888,,다목적,1,,,,2018-04,064-760-4463,33.4110571,126.7746585,2018-07-31
"제주특별자치도 서귀포시",제주특별자치도 서귀포시 표선읍 세화리 1080,,다목적,1,,,,2018-04,064-760-4463,33.3310789,126.7983208,2018-07-31
"제주특별자치도 서귀포시",제주특별자치도 서귀포시 표선면 토산리 154-2,,다목적,1,,,,2018-04,064-760-4463,33.318609,126.790038,2018-07-31
"제주특별자치도 서귀포시",제주특별자치도 서귀포시 표선읍 세화리 209-3,,다목적,1,,,,2018-04,064-760-4463,33.3045408,126.8034151,2018-07-31
"제주특별자치도 서귀포시",제주특별자치도 서귀포시 표선읍 세화리 257-1,,다목적,1,,,,2018-04,064-760-4463,33.3076857,126.8043469,2018-07-31
"제주특별자치도 서귀포시",제주특별자치도 서귀포시 표선읍 세화리 1140-6,,다목적,1,,,,2018-04,064-760-4463,33.3299632,126.7979956,2018-07-31
"제주특별자치도 서귀포시",제주특별자치도 서귀포시 표선읍 세화리 1811-1,,다목적,1,,,,2018-04,064-760-4463,33.3264719,126.7973731,2018-07-31
"제주특별자치도 서귀포시",제주특별자치도 서귀포시 표선면 토산리 456-2,,다목적,1,,,,2018-04,064-760-4463,33.307391,126.776625,2018-07-31
"제주특별자치도 서귀포시",제주특별자치도 서귀포시 표선면 표선리 2919-2,,다목적,1,,,,2018-04,064-760-4463,33.3079204,126.8127578,2018-07-31
"제주특별자치도 서귀포시",제주특별자치도 서귀포시 표선면 토산리 934-1,,다목적,1,,,,2018-04,064-760-4463,33.3301267,126.7701072,2018-07-31
"제주특별자치도 서귀포시",제주특별자치도 서귀포시 표선면 가시리 2168-2,,다목적,1,,,,2018-04,064-760-4463,33.3452039,126.7734224,2018-07-31
"제주특별자치도 서귀포시",제주특별자치도 서귀포시 성산읍 성읍리 2901,,다목적,1,,,,2018-04,064-760-4463,33.4129297,126.7718737,2018-07-31
"제주특별자치도 서귀포시",제주특별자치도 서귀포시 표선읍 세화리 200-1,,다목적,1,,,,2018-04,064-760-4463,33.304365,126.8060336,2018-07-31
"제주특별자치도 서귀포시",제주특별자치도 서귀포시 표선면 표선리 40-66,,다목적,1,,,,2018-04,064-760-4463,33.3235889,126.8382221,2018-07-31
"제주특별자치도 서귀포시",제주특별자치도 서귀포시 표선면 토산리 425-10,,다목적,1,,,,2018-04,064-760-4463,33.3064473,126.7835815,2018-07-31
"제주특별자치도 서귀포시",제주특별자치도 서귀포시 표선면 표선리 2078,,다목적,1,,,,2018-04,064-760-4463,33.3273636,126.8234497,2018-07-31
"제주특별자치도 서귀포시",제주특별자치도 서귀포시 표선읍 세화리 1510,,다목적,1,,,,2018-04,064-760-4463,33.3068903,126.8007525,2018-07-31
"제주특별자치도 서귀포시",제주특별자치도 서귀포시 표선면 하천리 668-3,,다목적,1,,,,2018-04,064-760-4463,33.3518751,126.8368619,2018-07-31
"제주특별자치도 서귀포시",제주특별자치도 서귀포시 표선면 하천리 2176-1,,다목적,1,,,,2018-04,064-760-4463,33.3532358,126.8099459,2018-07-31
"제주특별자치도 서귀포시",제주특별자치도 서귀포시 표선면 하천리 2466-3,,다목적,5,,,,2018-04,064-760-4474,33.368076,126.796699,2018-07-31
"제주특별자치도 서귀포시",제주특별자치도 서귀포시 표선면 표선동서로 203-1,,다목적,8,,,,2018-04,064-760-4475,33.322186,126.830709,2018-07-31
"제주특별자치도 서귀포시",제주특별자치도 서귀포시 소암로 4,,다목적,1,,,,2013-02,064-760-4506,33.2450378,126.5661672,2018-07-31
"제주특별자치도 서귀포시",제주특별자치도 서귀포시 서귀동 634-2,,다목적,2,,,,2017-04,064-760-4513,33.143567,126.334703,2018-07-31
"제주특별자치도 서귀포시",제주특별자치도 서귀포시 서귀동 673-5,,다목적,2,,,,2017-04,064-760-4513,33.142518,126.334280,2018-07-31
"제주특별자치도 서귀포시",제주특별자치도 서귀포시 보목동 566,,다목적,2,,,,2017-04,064-760-4513,33.142204,126.362225,2018-07-31
"제주특별자치도 서귀포시",제주특별자치도 서귀포시 보목동 420,,다목적,2,,,,2017-04,064-760-4513,33.143347,126.361650,2018-07-31
"제주특별자치도 서귀포시",제주특별자치도 서귀포시 보목동 660,,다목적,2,,,,2017-04,064-760-4513,33.143296,126.355544,2018-07-31
"제주특별자치도 서귀포시",제주특별자치도 서귀포시 보목동 869-1,,다목적,2,,,,2017-04,064-760-4513,33.143853,126.360359,2018-07-31
"제주특별자치도 서귀포시",제주특별자치도 서귀포시 서귀동 778-3,,다목적,2,,,,2017-04,064-760-4513,33.142667,126.335132,2018-07-31
"제주특별자치도 서귀포시",제주특별자치도 서귀포시 서귀동 738-2,,다목적,2,,,,2017-04,064-760-4513,33.143233,126.335792,2018-07-31
"제주특별자치도 서귀포시",제주특별자치도 서귀포시 동문동로 27,,다목적,8,,,,2017-04,064-760-4563,33.250716,126.5651902,2018-07-31
"제주특별자치도 서귀포시",제주특별자치도 서귀포시 서귀동261-1(클린하우스1),,다목적,2,,,,2015-04,064-760-4574,33.252963,126.565937,2018-07-31
"제주특별자치도 서귀포시",제주특별자치도 서귀포시 서귀동260-52(클린하우스2),,다목적,2,,,,2015-04,064-760-4574,33.251554,126.566372,2018-07-31
"제주특별자치도 서귀포시",제주특별자치도 서귀포시 서귀동250-6(클린하우스3),,다목적,2,,,,2015-04,064-760-4574,33.249244,126.569660,2018-07-31
"제주특별자치도 서귀포시",제주특별자치도 서귀포시 서귀동277-1(클린하우스4),,다목적,2,,,,2015-04,064-760-4574,33.250171,126.563679,2018-07-31
"제주특별자치도 서귀포시",제주특별자치도 서귀포시 서귀동 331-10,,다목적,2,,,,2017-04,064-760-4603,33.2516198,126.5563243,2018-07-31
"제주특별자치도 서귀포시",제주특별자치도 서귀포시 서귀동 330-9,,다목적,2,,,,2017-04,064-760-4603,33.2520876,126.5570966,2018-07-31
"제주특별자치도 서귀포시",제주특별자치도 서귀포시 서귀동 304-4,,다목적,2,,,,2017-04,064-760-4603,33.2510149,126.5582396,2018-07-31
"제주특별자치도 서귀포시",제주특별자치도 서귀포시 서홍동 581-10,,다목적,2,,,,2017-04,064-760-4603,33.2438741,126.5552552,2018-07-31
"제주특별자치도 서귀포시",제주특별자치도 서귀포시 서홍동 744-59,,다목적,2,,,,2017-04,064-760-4603,33.2420676,126.5543937,2018-07-31
"제주특별자치도 서귀포시",제주특별자치도 서귀포시 중정로 47번길 3,,다목적,1,,,,2013-02,064-760-4602,33.2477797,126.261354,2018-07-31
"제주특별자치도 서귀포시",제주특별자치도 서귀포시 신효중앙로4번길 1,,다목적,1,,,,2016-08,064-760-4625,33.2645901,126.6144298,2018-07-31
"제주특별자치도 서귀포시",제주특별자치도 서귀포시 하효중앙로 132,,다목적,1,,,,2016-08,064-760-4625,33.2620217,126.6189961,2018-07-31
"제주특별자치도 서귀포시",제주특별자치도 서귀포시 일주동로 8232 동부도서관 후문,,다목적,1,,,,2016-08,064-760-4625,33.2622678,126.6088075,2018-07-31
"제주특별자치도 서귀포시",제주특별자치도 서귀포시 쇠소깍로 104,,다목적,1,,,,2016-08,064-760-4625,33.2542498,126.6224923,2018-07-31
"제주특별자치도 서귀포시",제주특별자치도 서귀포시 신효동 820-4,,다목적,2,,,,2017-04,064-760-4632,33.2638954,126.612451,2018-07-31
"제주특별자치도 서귀포시",제주특별자치도 서귀포시 신효동 798 앞,,다목적,2,,,,2017-04,064-760-4632,33.2619679,126.6113321,2018-07-31
"제주특별자치도 서귀포시",제주특별자치도 서귀포시 신효동 592 앞,,다목적,2,,,,2017-04,064-760-4632,33.2665661,126.6094799,2018-07-31
"제주특별자치도 서귀포시",제주특별자치도 서귀포시 신효동 690-11 앞,,다목적,2,,,,2017-04,064-760-4632,33.2659266,126.6139784,2018-07-31
"제주특별자치도 서귀포시",제주특별자치도 서귀포시 하효동 11-2,,다목적,2,,,,2017-04,064-760-4632,33.2662915,126.620923,2018-07-31
"제주특별자치도 서귀포시",제주특별자치도 서귀포시 하효동 538 앞,,다목적,2,,,,2017-04,064-760-4632,33.2585128,126.622347,2018-07-31
"제주특별자치도 서귀포시",제주특별자치도 서귀포시 하효동 429 앞,,다목적,2,,,,2017-04,064-760-4632,33.2599133,126.6234304,2018-07-31
"제주특별자치도 서귀포시",제주특별자치도 서귀포시 하효동 1304-4,,다목적,2,,,,2017-04,064-760-4632,33.2496921,126.6192448,2018-07-31
"제주특별자치도 서귀포시",제주특별자치도 서귀포시 하효동 910 앞,,다목적,2,,,,2017-04,064-760-4632,33.2576145,126.6177723,2018-07-31
"제주특별자치도 서귀포시",제주특별자치도 서귀포시 하효동 625-2 앞,,다목적,2,,,,2017-04,064-760-4632,33.2595153,126.6178733,2018-07-31
"제주특별자치도 서귀포시",제주특별자치도 서귀포시 효돈로152번길 7,,다목적,1,,,,2017-04,064-760-4632,33.2633204,126.6156251,2018-07-31
"제주특별자치도 서귀포시",제주특별자치도 서귀포시 토평로15 (영천동주민센터),,다목적,1,,,,2013-01,064-760-4653,33.268773,126.586736,2018-07-31
"제주특별자치도 서귀포시",제주특별자치도 서귀포시 돈내코로 114 (돈내코야영장),,다목적,4,,,,2015-04,064-760-4653,33.300593,126.585115,2018-07-31
"제주특별자치도 서귀포시",제주특별자치도 서귀포시 토평동 1615-10,,다목적,1,,,,2017-04,064-760-4665,33.2844099,126.5796743,2018-07-31
"제주특별자치도 서귀포시",제주특별자치도 서귀포시 동홍동 1687-1 5단지 옆,,다목적,2,,,,2017-04,064-760-4693,33.264943,126.563498,2018-07-31
"제주특별자치도 서귀포시",제주특별자치도 서귀포시 동홍동 1041-8 청소년문화의 집,,다목적,2,,,,2017-04,064-760-4693,33.266291,126.567062,2018-07-31
"제주특별자치도 서귀포시",제주특별자치도 서귀포시 동홍동 1209-1 반석아르미 입구,,다목적,2,,,,2017-04,064-760-4693,33.264135,126.570281,2018-07-31
"제주특별자치도 서귀포시",제주특별자치도 서귀포시 동홍동 1380-8 명물천 앞,,다목적,2,,,,2017-04,064-760-4693,33.259004,126.561361,2018-07-31
"제주특별자치도 서귀포시",제주특별자치도 서귀포시 동홍동 1504-3 동방아파트 부근,,다목적,2,,,,2017-04,064-760-4693,33.254351,126.563753,2018-07-31
"제주특별자치도 서귀포시",제주특별자치도 서귀포시 동홍동 529-8 우성빌라 건너편,,다목적,2,,,,2017-04,064-760-4693,33.256315,126.566432,2018-07-31
"제주특별자치도 서귀포시",제주특별자치도 서귀포시 동홍동 426-7 새동산교회,,다목적,2,,,,2017-04,064-760-4693,33.251403,126.570096,2018-07-31
"제주특별자치도 서귀포시",제주특별자치도 서귀포시 동홍동 646-1 노인복지회관,,다목적,2,,,,2017-04,064-760-4693,33.254616,126.570653,2018-07-31
"제주특별자치도 서귀포시",제주특별자치도 서귀포시 동홍동 151 덕산캐슬,,다목적,2,,,,2017-04,064-760-4693,33.252530,126.574295,2018-07-31
"제주특별자치도 서귀포시",제주특별자치도 서귀포시 동홍동 823 서귀포제일교회 건너편,,다목적,2,,,,2017-04,064-760-4693,33.252437,126.576600,2018-07-31
"제주특별자치도 서귀포시",제주특별자치도 서귀포시 동홍동 577-7 동홍동행정복지센터,,다목적,2,,,,2017-04,064-760-4693,33.257830,126.569225,2018-07-31
"제주특별자치도 서귀포시",제주특별자치도 서귀포시 동홍동 106-1 중고마트,,다목적,3,,,,2017-04,064-760-4693,33.257201,126.574875,2018-07-31
"제주특별자치도 서귀포시",제주특별자치도 서귀포시 동홍동 470-1 작은도서관 옆,,다목적,2,,,,2017-04,064-760-4693,33.255380,126.572453,2018-07-31
"제주특별자치도 서귀포시",제주특별자치도 서귀포시 토평동 3265-8 아이진아파트,,다목적,2,,,,2017-04,064-760-4693,33.257527,126.578596,2018-07-31
"제주특별자치도 서귀포시",제주특별자치도 서귀포시 동홍동 420-1 현대탕 뒤,,다목적,2,,,,2017-04,064-760-4693,33.256409,126.575794,2018-07-31
"제주특별자치도 서귀포시",제주특별자치도 서귀포시 동홍동 392-8 제주상회,,다목적,2,,,,2017-04,064-760-4693,33.249674,126.570708,2018-07-31
"제주특별자치도 서귀포시",제주특별자치도 서귀포시 동홍동 1242-5 보릿고개,,다목적,2,,,,2017-04,064-760-4693,33.262297,126.566878,2018-07-31
"제주특별자치도 서귀포시",제주특별자치도 서귀포시 동홍동 64-15 충암 5차 인근,,다목적,2,,,,2018-04,064-760-4693,33.258909,126.574894,2018-07-31
"제주특별자치도 서귀포시",제주특별자치도 서귀포시 동홍동 663 유정3차 빌라,,다목적,3,,,,2018-04,064-760-4693,33.258708,126.576844,2018-07-31
"제주특별자치도 서귀포시",제주특별자치도 서귀포시 동홍동 1385-8 협심빌라 부근,,다목적,2,,,,2018-04,064-760-4693,33.260839,126.562242,2018-07-31
"제주특별자치도 서귀포시",제주특별자치도 서귀포시 동홍동 392-1 캐슬휘닉스,,다목적,2,,,,2018-04,064-760-4693,33.254252,126.575027,2018-07-31
"제주특별자치도 서귀포시",제주특별자치도 서귀포시 동홍동 682-2 동홍동재활용도움센터,,다목적,6,,,,2018-04,064-760-4693,33.259325,126.572036,2018-07-31
"제주특별자치도 서귀포시",제주특별자치도 서귀포시 동홍로 104,,다목적,17,,,,2011-04,064-760-4684,33.2578824,126.569225,2018-07-31
"제주특별자치도 서귀포시",제주특별자치도 서귀포시 서홍동 397-33(서홍동재활용도움센터),,다목적,4,,,,2017-04,064-760-4748,33.2552356,126.558264,2018-07-31
"제주특별자치도 서귀포시",제주특별자치도 서귀포시 서홍동 364-3,,다목적,2,,,,2017-04,064-760-4741,33.2549874,126.5572482,2018-07-31
"제주특별자치도 서귀포시",제주특별자치도 서귀포시 천제연로 281,,다목적,4,,,,2015-04,064-760-4812,33.2514374,126.4348664,2018-07-31
"제주특별자치도 서귀포시",제주특별자치도 서귀포시 1100로 30,,다목적,13,,,,2018-04,064-760-4812,33.2514462,126.4347909,2018-07-31
"제주특별자치도 서귀포시",제주특별자치도 서귀포시 중문상로17번길 3,,다목적,7,,,,2017-04,064-760-4813,33.2501243,126.4242014,2018-07-31
"제주특별자치도 서귀포시",제주특별자치도 서귀포시 상예동 3194-1 (메모루길 교차로),,다목적,4,200,,,2016-08,064-760-4841,33.245346,126.3814792,2018-07-31
"제주특별자치도 서귀포시",제주특별자치도 서귀포시 예래로 82 (예래동주민센터 내),,다목적,1,,,,2015-04,064-760-4842,33.254281,126.397951,2018-07-31
"제주특별자치도 서귀포시",제주특별자치도 서귀포시 하예동 997-4 (예래동 관내 클린하우스),,다목적,2,,,,2015-04,064-760-4852,33.2414461,126.3824532,2018-07-31
"제주특별자치도 서귀포시",제주특별자치도 서귀포시 색달동 947-3 (색달 군남동),,다목적,3,,,,2017-04,064-760-4841,33.2733477,126.4097871,2018-07-31
"제주특별자치도 서귀포시",제주특별자치도 서귀포시 색달로 74 (색달마을복지회관),,다목적,4,,,,2017-04,064-760-4841,33.2610577,126.4113733,2018-07-31
"제주특별자치도 서귀포시",제주특별자치도 서귀포시 예래로 210-14 (예래초),,다목적,5,,,,2017-04,064-760-4841,33.2466298,126.3909666,2018-07-31
"제주특별자치도 서귀포시",제주특별자치도 서귀포시 상예동 4627-9 (상예2복지타운 앞),,다목적,4,,,,2018-04,064-760-4841,33.2651424,126.3776017,2018-07-31
