"관리기관명",소재지도로명주소,소재지지번주소,설치목적구분,카메라대수,카메라화소수,촬영방면정보,보관일수,설치년월,관리기관전화번호,위도,경도,데이터기준일자
"제주특별자치도",제주특별자치도 제주시 조천읍 신촌리 1385-2,,다목적,4,,조천읍 신촌리,30,,064-710-8855,33.51773414,126.6199416,2019-07-18
"제주특별자치도",제주특별자치도 서귀포시 성산읍 수산리 1292-3,,다목적,4,,수산리 삼거리,30,,064-710-8855,33.44901472,126.880081,2019-07-18
"제주특별자치도",제주특별자치도 서귀포시 성산읍 수산리 732-3,,다목적,5,,수산사거리,30,,064-710-8855,33.44350098,126.8842644,2019-07-18
"제주특별자치도",제주특별자치도 서귀포시 성산읍 신산리 1001-2,,다목적,3,,신산중학교 동북쪽 삼거리(1001-2),30,,064-710-8855,33.38342666,126.8754211,2019-07-18
"제주특별자치도",제주특별자치도 서귀포시 표선면 가시리 2520-1,,다목적,3,,정석비행장 입구 사거리(가시리 2520-1),30,,064-710-8855,33.36092622,126.7668939,2019-07-18
"제주특별자치도",제주특별자치도 서귀포시 표선면 원님로725,,다목적,3,,가시리사거리방향,30,,064-710-8855,33.36026466,126.7656286,2019-07-18
"제주특별자치도",제주특별자치도 서귀포시 남원읍 수망리 산 130-1,,다목적,3,,수망사거리 북측,30,,064-710-8855,33.34864889,126.6997246,2019-07-18
"제주특별자치도",제주특별자치도 서귀포시 남원읍 신흥리 21-3,,다목적,3,,신흥리 일주동로 대호편의점앞(토산방향),30,,064-710-8855,33.3477533,126.732152,2019-07-18
"제주특별자치도",제주특별자치도 제주시 한림읍 금악리 402-1,,다목적,3,,금악삼거리,30,,064-710-8855,33.34608003,126.3149987,2019-07-18
"제주특별자치도",제주특별자치도 서귀포시 남원읍 한남리 990-2,,다목적,3,,수망사거리 서측,30,,064-710-8855,33.33637836,126.6935324,2019-07-18
"제주특별자치도",제주특별자치도 서귀포시 표선면 중산간동로5517,,다목적,3,,토산1리 토산세화로방향,30,,064-710-8855,33.3287428,126.770056,2019-07-18
"제주특별자치도",제주특별자치도 서귀포시 남원읍 신흥리 857-2,,다목적,3,,고수동 입구,30,,064-710-8855,33.32231941,126.7574774,2019-07-18
"제주특별자치도",제주특별자치도 서귀포시 표선면 세화로154,,다목적,3,,세화로 154번지 도로변,30,,064-710-8855,33.3177401,126.7906443,2019-07-18
"제주특별자치도",제주특별자치도 서귀포시 남원읍 하례리 64-14,,다목적,3,,하례리 서성로입구 삼거리 동측,30,,064-710-8855,33.3174429,126.6004229,2019-07-18
"제주특별자치도",제주특별자치도 서귀포시 남원읍 신흥리 1576-3,,다목적,4,,신흥2리 오거리(1576-3),30,,064-710-8855,33.31694693,126.7446147,2019-07-18
"제주특별자치도",제주특별자치도 서귀포시 남원읍 한남리 1657,,다목적,3,,한남교차로,30,,064-710-8855,33.31189326,126.6961614,2019-07-18
"제주특별자치도",제주특별자치도 서귀포시 남원읍 하례리 1869-3,,다목적,3,,하례리 양마단지 입구 학림교 동측,30,,064-710-8855,33.30074312,126.6027979,2019-07-18
"제주특별자치도",제주특별자치도 서귀포시 동홍동 2145-2,,다목적,3,,산록도로 전망대,30,,064-710-8855,33.2915909,126.5550435,2019-07-18
"제주특별자치도",제주특별자치도 서귀포시 안덕면 서광리 786-2,,다목적,4,,서광 소인국테마마크 앞,30,,064-710-8855,33.28886499,126.3228438,2019-07-18
"제주특별자치도",제주특별자치도 서귀포시 남원읍 신례리 1419-14,,다목적,3,,하례입구교차로,30,,064-710-8855,33.2848502,126.6180288,2019-07-18
"제주특별자치도",제주특별자치도 서귀포시 안덕면 상창리 1903-1,,다목적,4,,자동차박물관,30,,064-710-8855,33.28179582,126.3540485,2019-07-18
"제주특별자치도",제주특별자치도 서귀포시 안덕면 덕수리 산3-17,,다목적,2,,성일레미콘앞,30,,064-710-8855,33.27605536,126.3335877,2019-07-18
"제주특별자치도",제주특별자치도 서귀포시 대정읍 무릉리 385-1,,다목적,3,,한경면 산양리(무릉2리교차로),30,,064-710-8855,33.27390823,126.2445697,2019-07-18
"제주특별자치도",제주특별자치도 서귀포시 동홍동 1005-2,,다목적,2,,남주고등학교 입구,30,,064-710-8855,33.26978726,126.5693061,2019-07-18
"제주특별자치도",제주특별자치도 서귀포시 하원동 690-6,,다목적,2,,탐라대 입구 삼거리,30,,064-710-8855,33.2638242,126.4604066,2019-07-18
"제주특별자치도",제주특별자치도 서귀포시 하효동 1068-3,,다목적,2,,쇠소깍 입구 삼가로,30,,064-710-8855,33.25256136,126.6172019,2019-07-18
"제주특별자치도",제주특별자치도 서귀포시 대정읍 보성리 1686-3,,다목적,2,,보성리사무소,30,,064-710-8855,33.25136992,126.2742263,2019-07-18
"제주특별자치도",제주특별자치도 서귀포시 상예동 3194-1,,다목적,4,,예래동체육공원 앞,30,,064-710-8855,33.24578188,126.3817481,2019-07-18
"제주특별자치도",제주특별자치도 서귀포시 안덕면 사계리 2975-5,,다목적,5,,산방산(사계리),30,,064-710-8855,33.23608583,126.2976931,2019-07-18
"제주특별자치도",제주특별자치도 서귀포시 강정동 608-2,,다목적,2,,강정동 좀당 4가로,30,,064-710-8855,33.23593353,126.5057352,2019-07-18
"제주특별자치도",제주특별자치도 제주시 구좌읍 월정리 554-6,,생활방범,6,,NH하나로마트 삼거리,30,,064-710-8855,33.55625426,126.7950167,2019-07-18
"제주특별자치도",제주특별자치도 제주시 구좌읍 김녕리 1690-1,,생활방범,1,,김녕초 킹마트,30,,064-710-8855,33.55488113,126.7511574,2019-07-18
"제주특별자치도",제주특별자치도 제주시 구좌읍 김녕리 2121,,생활방범,1,,김녕초 앞,30,,064-710-8855,33.55430924,126.7496133,2019-07-18
"제주특별자치도",제주특별자치도 제주시 구좌읍 월정1길 1,제주특별자치도 제주시 구좌읍 월정리 891-7,생활방범,4,,월정1길1앞 사거리,30,,064-710-8855,33.55204042,126.7910846,2019-07-18
"제주특별자치도",제주특별자치도 제주시 구좌읍 김녕리 1788-6,,생활방범,3,,김녕중학교 앞 교차로 (김녕리1788-6 사거리),30,,064-710-8855,33.55134545,126.7502079,2019-07-18
"제주특별자치도",제주특별자치도 제주시 구좌읍 동복리 1705-56,,생활방범,4,,젠틀룸게스트하우스,30,,064-710-8855,33.54983015,126.7093559,2019-07-18
"제주특별자치도",제주특별자치도 제주시 조천읍 북촌5길 18,,생활방범,4,,북촌초 후문 삼거리(북촌리),30,,064-710-8855,33.5488259,126.6922799,2019-07-18
"제주특별자치도",제주특별자치도 제주시 조천읍 북촌1길 43,,생활방범,5,,해동웅이네식당입구 사거리(북촌리),30,,064-710-8855,33.54793943,126.6845541,2019-07-18
"제주특별자치도",제주특별자치도 제주시 조천읍 북촌12길 25,,생활방범,4,,한사동입구 남쪽(북촌리),30,,064-710-8855,33.54703048,126.6988257,2019-07-18
"제주특별자치도",제주특별자치도 제주시 조천읍 신흥리 938,,생활방범,5,,신흥슈퍼 사거리,30,,064-710-8855,33.54498746,126.6526283,2019-07-18
"제주특별자치도",제주특별자치도 제주시 조천읍 함덕리 4143,,생활방범,1,,함덕서우봉해변 북,30,,064-710-8855,33.54128586,126.6688021,2019-07-18
"제주특별자치도",제주특별자치도 제주시 조천읍 함덕리 1002-73,,생활방범,1,,함덕서우봉해변 남,30,,064-710-8855,33.54103178,126.668688,2019-07-18
"제주특별자치도",제주특별자치도 제주시 구좌읍 한동리 1208,,생활방범,3,,한동초교뒤,30,,064-710-8855,33.53842546,126.8301932,2019-07-18
"제주특별자치도",제주특별자치도 제주시 조천읍 조천리 1220-2,,생활방범,1,,조천리 리사무소 남쪽,30,,064-710-8855,33.53820263,126.639893,2019-07-18
"제주특별자치도",제주특별자치도 제주시 조천읍 조천리 2345-1,,생활방범,5,,분선동사거리,30,,064-710-8855,33.53793168,126.639507,2019-07-18
"제주특별자치도",제주특별자치도 제주시 조천읍 조천리 2360-1,,생활방범,1,,조천리 우체국,30,,064-710-8855,33.53775858,126.6387453,2019-07-18
"제주특별자치도",제주특별자치도 제주시 선사로4길 38,제주특별자치도 제주시 삼양1동 1646-1,생활방범,5,,삼양1동 마을회관,30,,064-710-8855,33.52564959,126.5895083,2019-07-18
"제주특별자치도",제주특별자치도 제주시 금산5길 26,제주특별자치도 제주시 화북1동4258-1,생활방범,5,,화북금산마을 부두,30,,064-710-8855,33.52485471,126.5638880,2019-07-18
"제주특별자치도",제주특별자치도 제주시 진남로53-1,제주특별자치도 제주시 화북1동 1658-2,생활방범,6,,청소년문화의집 입구,30,,064-710-8855,33.52364985,126.565925,2019-07-18
"제주특별자치도",제주특별자치도 제주시 진서로55,제주특별자치도 제주시 화북1동 4091-3,생활방범,5,,뜨레향A입구,30,,064-710-8855,33.5235100,126.5621195,2019-07-18
"제주특별자치도",제주특별자치도 제주시 구좌읍 세화리 1465-6,,생활방범,1,,세화리 북,30,,064-710-8855,33.52329728,126.856537,2019-07-18
"제주특별자치도",제주특별자치도 제주시 구좌읍 세화리 1421-2,,생활방범,1,,세화리 남,30,,064-710-8855,33.5232687,126.855726,2019-07-18
"제주특별자치도",제주특별자치도 제주시 진남로6길 48,제주특별자치도 제주시 화북1동 1948-4,생활방범,4,,청풍도서관 앞,30,,064-710-8855,33.52284468,126.5653764,2019-07-18
"제주특별자치도",제주특별자치도 제주시 진남로2길 35,제주특별자치도 제주시 화북1동 1955-2,생활방범,5,,대림아파트 앞 사거리 (유성주택앞 사거리),30,,064-710-8855,33.52183219,126.5633421,2019-07-18
"제주특별자치도",제주특별자치도 제주시 지석13길 6,제주특별자치도 제주시 삼양2동 2136-9,생활방범,5,,삼양동 주민센터 옆,30,,064-710-8855,33.52182247,126.5857081,2019-07-18
"제주특별자치도",제주특별자치도 제주시 진남로6길 28,제주특별자치도 제주시 화북1동 1966,생활방범,5,,화북교회 사거리,30,,064-710-8855,33.52125873,126.5659103,2019-07-18
"제주특별자치도",제주특별자치도 제주시 진동로17,제주특별자치도 제주시 화북1동 1969-16,생활방범,4,,청암빌라앞 사거리,30,,064-710-8855,33.52056356,126.5683231,2019-07-18
"제주특별자치도",제주특별자치도 제주시 삼봉로2길 16,제주특별자치도 제주시 삼양2동 2181-29,생활방범,4,,삼양체육관 옆,30,,064-710-8855,33.51979022,126.5861071,2019-07-18
"제주특별자치도",제주특별자치도 제주시 조천읍 남조로3길 44,,생활방범,3,,양천하동버스정류소(조천리),30,,064-710-8855,33.5205840955,126.6474001444,2019-07-18
"제주특별자치도",제주특별자치도 제주시 조천읍 신촌리 941-2,,생활방범,4,,동수동복지회관 삼거리,30,,064-710-8855,33.51894198,126.6258547,2019-07-18
"제주특별자치도",제주특별자치도 제주시 청풍남8길 14,제주특별자치도 제주시 화북1동 1107-1,생활방범,3,,화북성당 앞,30,,064-710-8855,33.5176045,126.5706448,2019-07-18
"제주특별자치도",제주특별자치도 제주시 건입동 956-1,,생활방범,3,,건입동사무소 1(현대아파트후문 동측),30,,064-710-8855,33.5169808,126.5348245,2019-07-18
"제주특별자치도",제주특별자치도 제주시 건입동 956-1,,생활방범,2,,건입동사무소 2(현대아파트 후문 북측),30,,064-710-8855,33.5169808,126.5348245,2019-07-18
"제주특별자치도",제주특별자치도 제주시 화삼북로4길 10,제주특별자치도 제주시 화북1동 1006-1,생활방범,4,,삼화초 삼수천 옆,30,,064-710-8855,33.51683984,126.5774414,2019-07-18
"제주특별자치도",제주특별자치도 제주시 동대2길 12-1,제주특별자치도 제주시 건입동 1039-11,생활방범,5,,동대2길,30,,064-710-8855,33.51682579,126.5374101,2019-07-18
"제주특별자치도",제주특별자치도 제주시 관덕로7길 35,,생활방범,1,,탑동컴퓨터세탁소앞,30,,064-710-8855,33.51630052,126.5233281,2019-07-18
"제주특별자치도",제주특별자치도 제주시 중앙로4길 4가,,생활방범,1,,서울호텔 뒤,30,,064-710-8855,33.5162905,126.5241392,2019-07-18
"제주특별자치도",제주특별자치도 제주시 관덕로15길 31,,생활방범,1,,탑고향 흑돼지촌 앞,30,,064-710-8855,33.51606116,126.5268013,2019-07-18
"제주특별자치도",제주특별자치도 제주시 무근성길 24,제주특별자치도 제주시 삼도2동 1160-3,생활방범,5,,그린빌라트 사거리,30,,064-710-8855,33.51601768,126.5191509,2019-07-18
"제주특별자치도",제주특별자치도 제주시 만덕로3길 19,,생활방범,1,,우일빌라앞,30,,064-710-8855,33.5160093,126.5332395,2019-07-18
"제주특별자치도",제주특별자치도 제주시 사라봉5길 30,제주특별자치도 제주시 건입동 675-17,생활방범,5,,출입국관리사무소 위,30,,064-710-8855,33.5157810,126.5402416,2019-07-18
"제주특별자치도",제주특별자치도 제주시 북성로63,제주특별자치도 제주시 삼도2동 1158-34,생활방범,5,,CU제주북성로점 앞(남경공인중개사 사거리),30,,064-710-8855,33.5152557,126.5180296,2019-07-18
"제주특별자치도",제주특별자치도 제주시 건입동 1141-3,,생활방범,5,,아라리오뮤지엄 삼거리,30,,064-710-8855,33.51506873,126.5293299,2019-07-18
"제주특별자치도",제주특별자치도 제주시 용담3동 531-88,,생활방범,4,,주연슈퍼 인근 오거리,30,,064-710-8855,33.5149628,126.5039834,2019-07-18
"제주특별자치도",제주특별자치도 제주시 산지로21-4,,생활방범,1,,건입동사무소 동측,30,,064-710-8855,33.51484436,126.5297752,2019-07-18
"제주특별자치도",제주특별자치도 제주시 건입동 1077-23,,생활방범,4,,제주여상입구 삼거리,30,,064-710-8855,33.51477685,126.5344682,2019-07-18
"제주특별자치도",제주특별자치도 제주시 건입동 1077-23,,생활방범,4,,한미기획 인쇄사 삼거리,30,,064-710-8855,33.51477685,126.5344682,2019-07-18
"제주특별자치도",제주특별자치도 제주시 화삼로1길 5,제주특별자치도 제주시 화북1동 1017-1,생활방범,5,,화북축협 뒤,30,,064-710-8855,33.514763,126.5743827,2019-07-18
"제주특별자치도",제주특별자치도 제주시 화삼로1길 16,제주특별자치도 제주시 화북1동 1015-1,생활방범,4,,은희네해장국 앞,30,,064-710-8855,33.51476112,126.5754951,2019-07-18
"제주특별자치도",제주특별자치도 제주시 화삼로1길 17,제주특별자치도 제주시 화북1동 1017-3,생활방범,4,,화북우체국 뒤,30,,064-710-8855,33.51475906,126.5738551,2019-07-18
"제주특별자치도",제주특별자치도 제주시 삼도2동 무근성1길 7,제주특별자치도 제주시  삼도2동 1158-7,생활방범,5,,무근성경로당 인근,30,,064-710-8855,33.5147389,126.5165725,2019-07-18
"제주특별자치도",제주특별자치도 제주시 공덕길 12,,생활방범,1,,기상청 동측4가,30,,064-710-8855,33.51467943,126.5309716,2019-07-18
"제주특별자치도",제주특별자치도 제주시 매촌2길 10,제주특별자치도 제주시 도련2동 576-1,생활방범,5,,도련2동 마을회관 사거리,30,,064-710-8855,33.51466386,126.5903778,2019-07-18
"제주특별자치도",제주특별자치도 제주시 선반로14길 11,제주특별자치도 제주시 화북2동 2117-1,생활방범,5,,동양레미콘 옆,30,,064-710-8855,33.5142959,126.5695937,2019-07-18
"제주특별자치도",제주특별자치도 제주시 조천읍 선흘리 2598-3,,생활방범,4,,선흘분교정문 삼거리,30,,064-710-8855,33.51414621,126.7047219,2019-07-18
"제주특별자치도",제주특별자치도 제주시 용담로3,제주특별자치도 제주시 용담2동 940-27,생활방범,4,,출입국관리사무소 맞은편,30,,064-710-8855,33.5137913,126.5075165,2019-07-18
"제주특별자치도",제주특별자치도 제주시 관덕로13길 9호,,생활방범,1,,열린새마을금고앞,30,,064-710-8855,33.51382245,126.5258284,2019-07-18
"제주특별자치도",제주특별자치도 제주시 동문로82,제주특별자치도 제주시 일도2동 982-5,생활방범,5,,킹마트 뒤편도로,30,,064-710-8855,33.51345724,126.5355613,2019-07-18
"제주특별자치도",제주특별자치도 제주시 관덕로17길,제주특별자치도 제주시 일도1동 1478-4,생활방범,4,,동문시장 맞은편,30,,064-710-8855,33.51332352,126.5210353,2019-07-18
"제주특별자치도",제주특별자치도 제주시 건입동 276,,생활방범,4,,공영주차장 내,30,,064-710-8855,33.51325483,126.5508345,2019-07-18
"제주특별자치도",제주특별자치도 제주시 동문로14길 5,제주특별자치도 제주시 일도2동 993-15,생활방범,5,,명주식당 앞 도로,30,,064-710-8855,33.51295423,126.5333057,2019-07-18
"제주특별자치도",제주특별자치도 제주시 용담1동 61-2,,생활방범,5,,비룡빌라 사거리,30,,064-710-8855,33.5129399,126.5148778,2019-07-18
"제주특별자치도",제주특별자치도 제주시 용담로38,,생활방범,5,,진영마트앞,30,,064-710-8855,33.5128997,126.5069223,2019-07-18
"제주특별자치도",제주특별자치도 제주시 흥운길 48,제주특별자치도 제주시  용담2동 367-8,생활방범,5,,다모아마트 앞,30,,064-710-8855,33.5128922,126.5130161,2019-07-18
"제주특별자치도",제주특별자치도 제주시 동광로19길 54,제주특별자치도 제주시 일도2동 146,생활방범,5,,7일레븐 제주일도하나점 (세븐25시 맞은편),30,,064-710-8855,33.51287146,126.5407058,2019-07-18
"제주특별자치도",제주특별자치도 제주시 문화마을길 3,제주특별자치도 제주시 화북2동 4948-1,생활방범,4,,제주교대 맞은편,30,,064-710-8855,33.5128015,126.5529369,2019-07-18
"제주특별자치도",제주특별자치도 제주시 고마로1길 43,제주특별자치도 제주시  일도2동 141-26,생활방범,4,,정도시락 서측,30,,064-710-8855,33.51264998,126.5426615,2019-07-18
"제주특별자치도",제주특별자치도 제주시 동문로8길 6,제주특별자치도 제주시 일도1동 1114,생활방범,5,,(구)동문파출소 뒤,30,,064-710-8855,33.51249923,126.5301131,2019-07-18
"제주특별자치도",제주특별자치도 제주시 거로길 40,제주특별자치도 제주시 화북2동 4975-8,생활방범,5,,거로길40앞 사거리,30,,064-710-8855,33.5124753,126.5583657,2019-07-18
"제주특별자치도",제주특별자치도 제주시 신산로7길 51,제주특별자치도 제주시 일도2동 984-12,생활방범,5,,제주시농협 본점 뒤편 (농협 뒤편),30,,064-710-8855,33.51235912,126.5368827,2019-07-18
"제주특별자치도",제주특별자치도 제주시 관덕로4길 9,제주특별자치도 제주시  삼도2동 968-1,생활방범,5,,밀레니엄아파트 뒤편,30,,064-710-8855,33.51232079,126.5214026,2019-07-18
"제주특별자치도",제주특별자치도 제주시 고마로5길 5,제주특별자치도 제주시 일도2동 132-43,생활방범,5,,일도세원멤버스2차 (해수갈비 맞은편),30,,064-710-8855,33.51228441,126.5390707,2019-07-18
"제주특별자치도",제주특별자치도 제주시 동문로10길 12,제주특별자치도 제주시 일도1동 1055-14,생활방범,4,,(구)송의원 밑,30,,064-710-8855,33.5121995,126.5311319,2019-07-18
"제주특별자치도",제주특별자치도 제주시 삼도2동 108-2,,생활방범,2,,모이세해장국(삼도2동 북측),30,,064-710-8855,33.512087,126.5200854,2019-07-18
"제주특별자치도",제주특별자치도 제주시 선반남2길 10,제주특별자치도 제주시  화북이동 3646-2,생활방범,4,,화남경로당 앞,30,,064-710-8855,33.51192146,126.5605139,2019-07-18
"제주특별자치도",제주특별자치도 제주시 동문로6길 14,,생활방범,1,,남안아파트앞,30,,064-710-8855,33.51168609,126.5287109,2019-07-18
"제주특별자치도",제주특별자치도 제주시 중앙로13길 34-9,제주특별자치도 제주시 일도1동 1106-1,생활방범,3,,동문 새마을금고,30,,064-710-8855,33.51130558,126.5286311,2019-07-18
"제주특별자치도",제주특별자치도 제주시 중앙로14길 9,,생활방범,1,,중앙성당 4가,30,,064-710-8855,33.51126298,126.5234106,2019-07-18
"제주특별자치도",제주특별자치도 제주시 신산로9길 53,,생활방범,5,,생생반점4거리,30,,064-710-8855,33.51106438,126.5380914,2019-07-18
"제주특별자치도",제주특별자치도 제주시 일도2동 1107-12,,생활방범,5,,제주포인트부동산 사거리,30,,064-710-8855,33.5110263,126.5285247,2019-07-18
"제주특별자치도",제주특별자치도 제주시 중앙로14길 15-6,제주특별자치도 제주시 삼도2동 161,생활방범,3,,중앙로14길15-6,30,,064-710-8855,33.51098512,126.5226334,2019-07-18
"제주특별자치도",제주특별자치도 제주시 신산로5길 20,제주특별자치도 제주시 일도2동 1010-18,생활방범,5,,칠선녀 체내리는집,30,,064-710-8855,33.5108815,126.5343711,2019-07-18
"제주특별자치도",제주특별자치도 제주시 신산로7길 29,,생활방범,5,,올챙이어린이집 북측 이면도로,30,,064-710-8855,33.51093219,126.5353873,2019-07-18
"제주특별자치도",제주특별자치도 제주시 중앙로13길 32-5,제주특별자치도 제주시 일도2동 1486-3,생활방범,3,,정한 아파트,30,,064-710-8855,33.5109176033,126.5278119652,2019-07-18
"제주특별자치도",제주특별자치도 제주시 관덕로8길 30,제주특별자치도 제주시 삼도2동 170-2,생활방범,4,,관덕로8길30앞 삼거리,30,,064-710-8855,33.5107331,126.5231332,2019-07-18
"제주특별자치도",제주특별자치도 제주시 용담로16길 8,,생활방범,4,,정원원룸 남서측,30,,064-710-8855,33.51051862,126.5133007,2019-07-18
"제주특별자치도",제주특별자치도 제주시 삼성로5길 50,제주특별자치도 제주시 일도1동 1095-8,생활방범,4,,벽화마을,30,,064-710-8855,33.5102681,126.5278400,2019-07-18
"제주특별자치도",제주특별자치도 제주시 용담2동 609-2,,생활방범,1,,영보맨션4가,30,,064-710-8855,33.5105035,126.5039664,2019-07-18
"제주특별자치도",제주특별자치도 제주시 신산로7길 21,제주특별자치도 제주시 일도2동 341-4,생활방범,5,,현대모비스 부품점 (리스치오카페 맞은편),30,,064-710-8855,33.5104917,126.5348505,2019-07-18
"제주특별자치도",제주특별자치도 제주시 고마로9길 18 일도2동,,생활방범,5,,신산시장아파트사거리(그린마트),30,,064-710-8855,33.51047278,126.5406943,2019-07-18
"제주특별자치도",제주특별자치도 제주시 삼도2동 1222-28,,생활방범,4,,제주대학교 창업보육센터 후문,30,,064-710-8855,33.5104297,126.5196852,2019-07-18
"제주특별자치도",제주특별자치도 제주시 삼도2동 175-5,,생활방범,5,,영흥반점 사거리,30,,064-710-8855,33.5103475,126.5211116,2019-07-18
"제주특별자치도",제주특별자치도 제주시 서문로23 용담1동,,생활방범,4,,용담로터리 서쪽,30,,064-710-8855,33.51034637,126.5138222,2019-07-18
"제주특별자치도",제주특별자치도 제주시 신산로4길 36,제주특별자치도 제주시 일도1동 1094-28,생활방범,4,,일도초 부근,30,,064-710-8855,33.5100289,126.5284984,2019-07-18
"제주특별자치도",제주특별자치도 제주시 용화로5,제주특별자치도 제주시  용담2동 884-11,생활방범,5,,헤르지아아파트사거리,30,,064-710-8855,33.51011977,126.5041652,2019-07-18
"제주특별자치도",제주특별자치도 제주시 오현길 56,,생활방범,1,,오현단 제주성지삼거리(다리건너기전),30,,064-710-8855,33.51006469,126.5266655,2019-07-18
"제주특별자치도",제주특별자치도 제주시 용담2동 616,,생활방범,1,,용담이동 616,30,,064-710-8855,33.5100077,126.5075295,2019-07-18
"제주특별자치도",제주특별자치도 제주시 용해로82,,생활방범,5,,용해로.용화로교차로(괸당네농수산앞),30,,064-710-8855,33.50985556,126.5033439,2019-07-18
"제주특별자치도",제주특별자치도 제주시 용해로82,,생활방범,5,,일도2동-태원갈비,30,,064-710-8855,33.50985556,126.5033439,2019-07-18
"제주특별자치도",제주특별자치도 제주시 용해로82,,생활방범,5,,성환사라봉 아파트,30,,064-710-8855,33.50985556,126.5033439,2019-07-18
"제주특별자치도",제주특별자치도 제주시 용해로82,,생활방범,6,,복지회관앞 놀이터,30,,064-710-8855,33.50985556,126.5033439,2019-07-18
"제주특별자치도",제주특별자치도 제주시 용해로82,,생활방범,5,,성환사라봉 아파트,30,,064-710-8855,33.50985556,126.5033439,2019-07-18
"제주특별자치도",제주특별자치도 제주시 용담로18길 7,제주특별자치도 제주시  용담1동 240-12,생활방범,5,,꼬꼬마어린이집 앞,30,,064-710-8855,33.50914899,126.5146636,2019-07-18
"제주특별자치도",제주특별자치도 제주시 도련1동 1654,,생활방범,5,,도련1동 버스정류장 뒤,30,,064-710-8855,33.5090722,126.5869765,2019-07-18
"제주특별자치도",제주특별자치도 제주시 중앙로19길 11,제주특별자치도 제주시 이도1동 1527-18,생활방범,4,,시민회관 밑,30,,064-710-8855,33.50899624,126.5250540,2019-07-18
"제주특별자치도",제주특별자치도 제주시 삼성로5길 33,제주특별자치도 제주시 일도2동 1041-1,생활방범,5,,남수각 오거리,30,,064-710-8855,33.50897906,126.5278334,2019-07-18
"제주특별자치도",제주특별자치도 제주시 용담1동 2583,,생활방범,5,,한밭빌라 사거리,30,,064-710-8855,33.5088443,126.5105352,2019-07-18
"제주특별자치도",제주특별자치도 제주시 용담1동 2583,,생활방범,5,,현대모비스 공영주차장,30,,064-710-8855,33.5088443,126.5105352,2019-07-18
"제주특별자치도",제주특별자치도 제주시 동광로20길 28,,생활방범,5,,민지네해장국 사거리,30,,064-710-8855,33.50860866,126.542811,2019-07-18
"제주특별자치도",제주특별자치도 제주시 천수동로2길 29,제주특별자치도 제주시 일도2동 372-18,생활방범,5,,17호(순복음교회 뒤.공원북쪽) (우정빌라 맞은편),30,,064-710-8855,33.5084985,126.5436485,2019-07-18
"제주특별자치도",제주특별자치도 제주시 거로남6길 24-1,제주특별자치도 제주시 화북2동 3443-2,생활방범,5,,거로남6길24-1앞 사거리,30,,064-710-8855,33.50851035,126.5623868,2019-07-18
"제주특별자치도",제주특별자치도 제주시 삼도2동 1228-28,,생활방범,5,,뉴현대손세차장삼거리,30,,064-710-8855,33.5084187,126.5196462,2019-07-18
"제주특별자치도",제주특별자치도 제주시 오현길 38,,생활방범,1,,오현길 병풍거리 아빠마트 4거리,30,,064-710-8855,33.50841687,126.5263021,2019-07-18
"제주특별자치도",제주특별자치도 제주시 고전길 26,,생활방범,1,,시민회관 앞 4거리,30,,064-710-8855,33.5084457,126.5254644,2019-07-18
"제주특별자치도",제주특별자치도 제주시 용담2동 643-2,,생활방범,3,,용문사거리앞,30,,064-710-8855,33.5082686,126.5074907,2019-07-18
"제주특별자치도",제주특별자치도 제주시 삼도2동 248-2,,생활방범,5,,삼우주택 사거리,30,,064-710-8855,33.5082335,126.5212723,2019-07-18
"제주특별자치도",제주특별자치도 제주시 용화로10길 23-1,제주특별자치도 제주시  용담2동 646-30,생활방범,5,,용문마을,30,,064-710-8855,33.50783489,126.5077216,2019-07-18
"제주특별자치도",제주특별자치도 제주시 일도2동 115-1,,생활방범,5,,한진수학학원앞,30,,064-710-8855,33.507808,126.5434604,2019-07-18
"제주특별자치도",제주특별자치도 제주시 삼성로7길 4,제주특별자치도 제주시 일도2동 1036-15,생활방범,4,,학표장갑 앞 도로,30,,064-710-8855,33.5075744522,126.5306455784,2019-07-18
"제주특별자치도",제주특별자치도 제주시 용문로11길 33 용담2동,,생활방범,3,,서문교회 서북쪽(예솔어린이집),30,,064-710-8855,33.50777202,126.5057182,2019-07-18
"제주특별자치도",제주특별자치도 제주시 용담2동 633-61,,생활방범,3,,예솔어린이집,30,,064-710-8855,33.5077591,126.5035928,2019-07-18
"제주특별자치도",제주특별자치도 제주시 신산로8길 39,,생활방범,5,,만수탕4거리,30,,064-710-8855,33.50759348,126.5296093,2019-07-18
"제주특별자치도",제주특별자치도 제주시 중앙로25길 30,제주특별자치도 제주시 이도1동 1325-19,생활방범,5,,이도1동주민센터 동쪽골목,30,,064-710-8855,33.50685887,126.5283194,2019-07-18
"제주특별자치도",제주특별자치도 제주시 일도2동 451,,생활방범,4,,동남1차아파트 입구,30,,064-710-8855,33.5067126,126.5433055,2019-07-18
"제주특별자치도",제주특별자치도 제주시 사사로7길 27,제주특별자치도 제주시 삼도2동 1230-4,생활방범,3,,서사로7길27앞,30,,064-710-8855,33.5066387,126.5202189,2019-07-18
"제주특별자치도",제주특별자치도 제주시 남성로26길 38,제주특별자치도 제주시 삼도2동 1236-1,생활방범,5,,해락원사거리,30,,064-710-8855,33.50636242,126.5243226,2019-07-18
"제주특별자치도",제주특별자치도 제주시 신산로13길 5,제주특별자치도 제주시 일도2동 338-19,생활방범,5,,338-19앞 도로,30,,064-710-8855,33.50628071,126.5357027,2019-07-18
"제주특별자치도",제주특별자치도 제주시 일도2동 419-11,,생활방범,5,,공영주차장앞,30,,064-710-8855,33.5061554,126.5419997,2019-07-18
"제주특별자치도",제주특별자치도 제주시 회천동 1182-5,,생활방범,4,,회전교차로인근,30,,064-710-8855,33.50611607,126.6160606,2019-07-18
"제주특별자치도",제주특별자치도 제주시 삼도2동 1239-1,,생활방범,2,,삼도제주보쌈 동측,30,,064-710-8855,33.505966,126.5211925,2019-07-18
"제주특별자치도",제주특별자치도 제주시 삼도2동 1243,,생활방범,4,,명가동태탕 사거리,30,,064-710-8855,33.5058611,126.5215494,2019-07-18
"제주특별자치도",제주특별자치도 제주시 일도2동 461,,생활방범,5,,영암주차장 삼거리,30,,064-710-8855,33.5058163,126.5375467,2019-07-18
"제주특별자치도",제주특별자치도 제주시 생고마로17길,,생활방범,4,,신산종합시장 삼거리,30,,064-710-8855,33.5057891,126.5415445,2019-07-18
"제주특별자치도",제주특별자치도 제주시 용담2동 2813-1,,생활방범,4,,게스트하우스 삼거리,30,,064-710-8855,33.5054575,126.5061431,2019-07-18
"제주특별자치도",제주특별자치도 제주시 삼도2동 594-13,,생활방범,4,,중앙여중입구 삼거리,30,,064-710-8855,33.505341,126.5192896,2019-07-18
"제주특별자치도",제주특별자치도 제주시 서사로12길 35,제주특별자치도 제주시  삼도1동 718-26,생활방범,5,,뉴그린슈퍼 앞,30,,064-710-8855,33.50528933,126.5165952,2019-07-18
"제주특별자치도",제주특별자치도 제주시 전농로7길 7,제주특별자치도 제주시  삼도1동 702-2,생활방범,5,,르네상스호텔 앞,30,,064-710-8855,33.5050352,126.5178416,2019-07-18
"제주특별자치도",제주특별자치도 제주시 이도1동 1932-11,,생활방범,3,,신산공원입구(국일건재쪽) 주차장,30,,064-710-8855,33.5050742,126.5288399,2019-07-18
"제주특별자치도",제주특별자치도 제주시 삼도2동 303-10,,생활방범,4,,대한항공빌딩 삼거리,30,,064-710-8855,33.5048983,126.5229185,2019-07-18
"제주특별자치도",제주특별자치도 제주시 일도2동 46-2,,생활방범,4,,그린쉼터1,30,,064-710-8855,33.504623,126.543942,2019-07-18
"제주특별자치도",제주특별자치도 제주시 일도2동 46-2,,생활방범,4,,그린쉼터2,30,,064-710-8855,33.504623,126.543942,2019-07-18
"제주특별자치도",제주특별자치도 제주시 일도2동 46-2,,생활방범,4,,그린쉼터3,30,,064-710-8855,33.504623,126.543942,2019-07-18
"제주특별자치도",제주특별자치도 제주시 일도2동 46-2,,생활방범,4,,그린쉼터4,30,,064-710-8855,33.504623,126.543942,2019-07-18
"제주특별자치도",제주특별자치도 제주시 이도1동 1287-2,,생활방범,5,,보성시장 후문입구 사거리,30,,064-710-8855,33.5043777,126.5279638,2019-07-18
"제주특별자치도",제주특별자치도 제주시 삼도1동 273,,생활방범,4,,제주벽지 삼거리,30,,064-710-8855,33.5035562,126.5210472,2019-07-18
"제주특별자치도",제주특별자치도 제주시 동광로5길 16-5,제주특별자치도 제주시 이도1동 1249-26,생활방범,5,,국일건재사 위,30,,064-710-8855,33.50346712,126.5311275,2019-07-18
"제주특별자치도",제주특별자치도 제주시 일도2동 115-4,,생활방범,5,,풍어횟집 사거리,30,,064-710-8855,33.5033214,126.5421946,2019-07-18
"제주특별자치도",제주특별자치도 제주시 광양1길 28,제주특별자치도 제주시 이도1동 1256-22,생활방범,3,,보성시장 무료주차장,30,,064-710-8855,33.50322077,126.5286934,2019-07-18
"제주특별자치도",제주특별자치도 제주시 동회천1길 4,제주특별자치도 제주시 회천동 1285,생활방범,4,,동회천 버스정류장,30,,064-710-8855,33.5038470,126.6154118,2019-07-18
"제주특별자치도",제주특별자치도 제주시 동광로5길 19-16,제주특별자치도 제주시 이도1동 1254-7,생활방범,4,,광양초후문,30,,064-710-8855,33.50305745,126.5296269,2019-07-18
"제주특별자치도",제주특별자치도 제주시 용문로18길 62,제주특별자치도 제주시 용담2동 2696-32,생활방범,4,,용문로18길62,30,,064-710-8855,33.50294732,126.5105047,2019-07-18
"제주특별자치도",제주특별자치도 제주시 연수로4길 1,,생활방범,4,,조마루감자탕 삼거리,30,,064-710-8855,33.50288505,126.5433263,2019-07-18
"제주특별자치도",제주특별자치도 제주시 남광로181,제주특별자치도 제주시  일도2동 113-7,생활방범,4,,대유대림아파트 입구,30,,064-710-8855,33.5021801,126.5516297,2019-07-18
"제주특별자치도",제주특별자치도 제주시 용담2동 2818-3,,생활방범,4,,윤샘어린이집 사거리,30,,064-710-8855,33.5025462,126.5089996,2019-07-18
"제주특별자치도",제주특별자치도 제주시 중앙로186-1,,생활방범,1,,보성시장입구 맞은편골목 광명여인숙 4거리,30,,064-710-8855,33.50252966,126.5274419,2019-07-18
"제주특별자치도",제주특별자치도 제주시 월성로4길 16,제주특별자치도 제주시 용담2동 687-11,생활방범,4,,월성로8길 17 (월성로4길16),30,,064-710-8855,33.5020828,126.5034683,2019-07-18
"제주특별자치도",제주특별자치도 제주시 연수로1길 28,제주특별자치도 제주시 일도2동 65,생활방범,4,,41호2(공원 서측) (41호공원),30,,064-710-8855,33.50192749,126.5454104,2019-07-18
"제주특별자치도",제주특별자치도 제주시 동광로12길 19,제주특별자치도 제주시 이도2동 1128-1,생활방범,5,,기적의도서관 앞,30,,064-710-8855,33.5016977,126.5356731,2019-07-18
"제주특별자치도",제주특별자치도 제주시 동광로1길 6,제주특별자치도 제주시 이도1동 1257-7,생활방범,4,,광양초 정문,30,,064-710-8855,33.50167592,126.5294216,2019-07-18
"제주특별자치도",제주특별자치도 제주시 청귤로3길 44,제주특별자치도 제주시 이도2동 410-3,생활방범,4,,동여중 뒤,30,,064-710-8855,33.50148283,126.5417453,2019-07-18
"제주특별자치도",제주특별자치도 제주시 이도1동 1294 동광로9길,,생활방범,5,,광양 태홍누리안2차아파트 4거리,30,,064-710-8855,33.50142822,126.5300393,2019-07-18
"제주특별자치도",제주특별자치도 제주시 청귤로1길 50,제주특별자치도 제주시 이도2동 369-10,생활방범,5,,CU청귤로점,30,,064-710-8855,33.50141003,126.5393625,2019-07-18
"제주특별자치도",제주특별자치도 제주시 서광로13길 10,제주특별자치도 제주시  삼도1동 521-8,생활방범,5,,드림로드빌라 앞,30,,064-710-8855,33.5009906,126.5179695,2019-07-18
"제주특별자치도",제주특별자치도 제주시 이도1동 1660-5,,생활방범,5,,탐라장애인복지회관사거리,30,,064-710-8855,33.5009796,126.5224168,2019-07-18
"제주특별자치도",제주특별자치도 제주시 연삼로489,,생활방범,5,,학생문화원 서측,30,,064-710-8855,33.5007234,126.5410454,2019-07-18
"제주특별자치도",제주특별자치도 제주시 이도2동 1939,,생활방범,5,,라라플러스 사거리,30,,064-710-8855,33.5003803,126.5318613,2019-07-18
"제주특별자치도",제주특별자치도 제주시 청귤로5길 7,제주특별자치도 제주시 이도2동 370-21,생활방범,5,,수운근린공원 서측입구 사거리 (수운근린공원 옆),30,,064-710-8855,33.50019824,126.5386394,2019-07-18
"제주특별자치도",제주특별자치도 제주시 용담2동 707-6,,생활방범,4,,명신마을복지회관앞,30,,064-710-8855,33.5000295,126.4987723,2019-07-18
"제주특별자치도",제주특별자치도 제주시 태성로4길 23,제주특별자치도 제주시 일도2동 88,생활방범,4,,42호3(공원 화장실) (42호공원3),30,,064-710-8855,33.50002107,126.5472520,2019-07-18
"제주특별자치도",제주특별자치도 제주시 광양8길 26,제주특별자치도 제주시 이도2동 1776-16,생활방범,5,,CGV영화관 뒤,30,,064-710-8855,33.49977222,126.5269643,2019-07-18
"제주특별자치도",제주특별자치도 제주시 용담2동 2580-77,,생활방범,5,,굿모닝렌터카 사거리,30,,064-710-8855,33.4991907,126.4977741,2019-07-18
"제주특별자치도",제주특별자치도 제주시 일도2동 109,,생활방범,5,,명성전자앞,30,,064-710-8855,33.4989211,126.5435187,2019-07-18
"제주특별자치도",제주특별자치도 제주시 광양11길 2,,생활방범,5,,시청정류소인근,30,,064-710-8855,33.49891478,126.5307492,2019-07-18
"제주특별자치도",제주특별자치도 제주시 오라3동 2328-3,,생활방범,2,,오라5거리진입로(크로바어린이집서측),30,,064-710-8855,33.4987561,126.5042673,2019-07-18
"제주특별자치도",제주특별자치도 제주시 삼도1동 585-22,,생활방범,5,,오름부동산 사거리,30,,064-710-8855,33.4987418,126.5209008,2019-07-18
"제주특별자치도",제주특별자치도 제주시 서광로32길 21,,생활방범,5,,벽오동인근,30,,064-710-8855,33.4987805,126.5290751,2019-07-18
"제주특별자치도",제주특별자치도 제주시 삼도1동 580-15,,생활방범,4,,아리아리동동 후문 삼거리,30,,064-710-8855,33.4985944,126.5215425,2019-07-18
"제주특별자치도",제주특별자치도 제주시 이도2동 1940,,생활방범,5,,제광교회옆 복개천,30,,064-710-8855,33.4984954,126.5254193,2019-07-18
"제주특별자치도",제주특별자치도 제주시 이도2동 1940,,생활방범,4,,사대천왕 사거리,30,,064-710-8855,33.4984954,126.5254193,2019-07-18
"제주특별자치도",제주특별자치도 제주시 서회천서 1길 1,제주특별자치도 제주시 회천동 2927-3,생활방범,5,,서회천 버스정류장,30,,064-710-8855,33.49843241,126.6064192,2019-07-18
"제주특별자치도",제주특별자치도 제주시 광양 14길 이도2동,,생활방범,6,,학사로 고전떡볶이 5거리,30,,064-710-8855,33.49842267,126.5301994,2019-07-18
"제주특별자치도",제주특별자치도 제주시 정든로1길 30,제주특별자치도 제주시 이도2동 393-8,생활방범,4,,탐라교회 밑,30,,064-710-8855,33.49826843,126.5414367,2019-07-18
"제주특별자치도",제주특별자치도 제주시 동고산로5,제주특별자치도 제주시  이도2동 1181-6,생활방범,5,,명진자동차공업사 인근,30,,064-710-8855,33.49823732,126.5318656,2019-07-18
"제주특별자치도",제주특별자치도 제주시 이도2동 13-2,,생활방범,1,,제주국제대유치원(수운교신천지부),30,,064-710-8855,33.4980599,126.5488878,2019-07-18
"제주특별자치도",제주특별자치도 제주시 도남동 924-9번지,,생활방범,5,,은현헤어사거리B,30,,064-710-8855,33.49779151,126.5232478,2019-07-18
"제주특별자치도",제주특별자치도 제주시 도남로4길 3,제주특별자치도 제주시 도남동 910,생활방범,4,,근혜빌라 앞,30,,064-710-8855,33.4973744,126.5256169,2019-07-18
"제주특별자치도",제주특별자치도 제주시 이도2동 444-14,,생활방범,5,,광신전기조명 사거리,30,,064-710-8855,33.4972472,126.538488,2019-07-18
"제주특별자치도",제주특별자치도 제주시 고산동산5길 34,제주특별자치도 제주시  이도2동 1060-3,생활방범,4,,이도2동사무소 남측,30,,064-710-8855,33.4969740,126.5360567,2019-07-18
"제주특별자치도",제주특별자치도 제주시 도남동 924-1번지,,생활방범,5,,대림APT사거리A,30,,064-710-8855,33.4970467,126.5236386,2019-07-18
"제주특별자치도",제주특별자치도 제주시 오라1동 1152-4,,생활방범,4,,종합경기장 입구삼거리,30,,064-710-8855,33.4969911,126.5102085,2019-07-18
"제주특별자치도",제주특별자치도 제주시 남광북1길 39,,생활방범,5,,안성리치빌 사거리(삼춘네포차),30,,064-710-8855,33.49666108,126.5374135,2019-07-18
"제주특별자치도",제주특별자치도 제주시 이도2동 1085-10,,생활방범,5,,스마일세탁소 사거리,30,,064-710-8855,33.4965881,126.5310784,2019-07-18
"제주특별자치도",제주특별자치도 제주시 남광북3길 46,,생활방범,4,,동백원룸 삼거리,30,,064-710-8855,33.4962654,126.5383848,2019-07-18
"제주특별자치도",제주특별자치도 제주시 신성로12길 23,제주특별자치도 제주시  이도2동 1017-16,생활방범,4,,아람가든 인근,30,,064-710-8855,33.49533513,126.5315464,2019-07-18
"제주특별자치도",제주특별자치도 제주시 신설로5길 31,제주특별자치도 제주시 이도2동 1945-1,생활방범,5,,한마음병원 뒤,30,,064-710-8855,33.49527282,126.5459436,2019-07-18
"제주특별자치도",제주특별자치도 제주시 승천로2길 9,제주특별자치도 제주시 이도2동 1073-2,생활방범,4,,제주일중 뒤,30,,064-710-8855,33.4951833,126.5381394,2019-07-18
"제주특별자치도",제주특별자치도 제주시 도남동 91-8,,생활방범,6,,도남오거리,30,,064-710-8855,33.4942344,126.5281797,2019-07-18
"제주특별자치도",제주특별자치도 제주시 신설로5길 7,제주특별자치도 제주시 이도2동 1946-5,생활방범,5,,혜연빌라 앞,30,,064-710-8855,33.49399704,126.5443342,2019-07-18
"제주특별자치도",제주특별자치도 제주시 오라1동 3817-2,,생활방범,5,,애향운동장 명동칼국수 앞,30,,064-710-8855,33.4938115,126.5125559,2019-07-18
"제주특별자치도",제주특별자치도 제주시 이호동 927-6,,생활방범,5,,이호동마을회관 사거리,30,,064-710-8855,33.4930831,126.457763,2019-07-18
"제주특별자치도",제주특별자치도 제주시 신대로8길 42,제주특별자치도 제주시  연동 280-19,생활방범,5,,신제주성당북측,30,,064-710-8855,33.4927602,126.4926479,2019-07-18
"제주특별자치도",제주특별자치도 제주시 도남로12길 8,제주특별자치도 제주시 도남동 57-4,생활방범,5,,도남청소년문화의집 (도남청소년회관 앞),30,,064-710-8855,33.49295491,126.5275254,2019-07-18
"제주특별자치도",제주특별자치도 제주시 오라2동 2178-1,,생활방범,1,,연삼로길(기아자동차 맞은편),30,,064-710-8855,33.492469,126.5106465,2019-07-18
"제주특별자치도",제주특별자치도 제주시 독짓골 8길 19,,생활방범,2,,도남 보덕사 북측(원당봉해장국 앞),30,,064-710-8855,33.4922878,126.5324001,2019-07-18
"제주특별자치도",제주특별자치도 제주시 도령로11길 19,제주특별자치도 제주시  연동 2318-14,생활방범,4,,45호어린이공원,30,,064-710-8855,33.49225909,126.4865096,2019-07-18
"제주특별자치도",제주특별자치도 제주시 귀아랑1길 14,제주특별자치도 제주시  연동 310-33,생활방범,5,,장수물식당앞 공원,30,,064-710-8855,33.49218032,126.4989299,2019-07-18
"제주특별자치도",제주특별자치도 제주시 외도1동 647-1,,생활방범,5,,네오하임6차 아파트 사거리,30,,064-710-8855,33.4920008,126.424794,2019-07-18
"제주특별자치도",제주특별자치도 제주시 아라2동 3020,,생활방범,6,,탐라중 후문 사거리,30,,064-710-8855,33.4918746,126.5436743,2019-07-18
"제주특별자치도",제주특별자치도 제주시 내도동 289-7,,생활방범,4,,다인빌 삼거리,30,,064-710-8855,33.4917451,126.4431608,2019-07-18
"제주특별자치도",제주특별자치도 제주시 남광로4길 29,제주특별자치도 제주시  이도2동 1974-13,생활방범,4,,중앙여고 서측 후문,30,,064-710-8855,33.49127051,126.5403275,2019-07-18
"제주특별자치도",제주특별자치도 제주시 도남로17길 32,제주특별자치도 제주시 도남동 78,생활방범,4,,연산홍APT 뒤 (도남 연산홍 APT뒤),30,,064-710-8855,33.4910557,126.5317034,2019-07-18
"제주특별자치도",제주특별자치도 제주시 이도2동 1085-11,,생활방범,4,,보덕사 삼거리,30,,064-710-8855,33.4908742,126.5303354,2019-07-18
"제주특별자치도",제주특별자치도 제주시 오라2동 1404-11,,생활방범,1,,오라초 북동쪽(클린하우스),30,,064-710-8855,33.4902291,126.5134895,2019-07-18
"제주특별자치도",제주특별자치도 제주시 회천동 3270,,생활방범,4,,서회천마을회관인근,30,,064-710-8855,33.48977881,126.6118833,2019-07-18
"제주특별자치도",제주특별자치도 제주시 독짓골8길 61,제주특별자치도 제주시 이도2동 1909-6,생활방범,5,,명주1차APT 앞 (도남 명주1차아파트 앞),30,,064-710-8855,33.48935541,126.5311051,2019-07-18
"제주특별자치도",제주특별자치도 제주시 오라2동 1354,,생활방범,1,,사임당어린이집 앞 삼거리,30,,064-710-8855,33.4889844,126.5104248,2019-07-18
"제주특별자치도",제주특별자치도 제주시 연동 282-45,,생활방범,1,,제원아파트서측 공원앞,30,,064-710-8855,33.48863268,126.4931885,2019-07-18
"제주특별자치도",제주특별자치도 제주시 연동 282-45,,생활방범,1,,부산할매아구찜 앞4가,30,,064-710-8855,33.48863268,126.4931885,2019-07-18
"제주특별자치도",제주특별자치도 제주시 연동 251-82,,생활방범,1,,한라수산앞,30,,064-710-8855,33.48862103,126.4853941,2019-07-18
"제주특별자치도",제주특별자치도 제주시 연동 292-64,,생활방범,1,,해봉이네 동태탕,30,,064-710-8855,33.4885279,126.4957321,2019-07-18
"제주특별자치도",제주특별자치도 제주시 외도1동 655-1,,생활방범,5,,외도타워아파트 사거리,30,,064-710-8855,33.4885066,126.4294311,2019-07-18
"제주특별자치도",제주특별자치도 제주시 선덕로3길 25,제주특별자치도 제주시  연동 312-22,생활방범,5,,제주도청 후문 사거리,30,,064-710-8855,33.4879941,126.4986302,2019-07-18
"제주특별자치도",제주특별자치도 제주시 연동 292-53,,생활방범,1,,대한항공사원주택서측,30,,064-710-8855,33.48797596,126.4952129,2019-07-18
"제주특별자치도",제주특별자치도 제주시 아라2동 3000-1,,생활방범,4,,영지학교 후문,30,,064-710-8855,33.4878701,126.5422395,2019-07-18
"제주특별자치도",제주특별자치도 제주시 아봉로720,제주특별자치도 제주시 봉개동 2374-1,생활방범,4,,반석APT 앞,30,,064-710-8855,33.4877226,126.5907347,2019-07-18
"제주특별자치도",제주특별자치도 제주시 외도1동 656-1,,생활방범,5,,청기화뼈다귀 사거리,30,,064-710-8855,33.4875144,126.4304604,2019-07-18
"제주특별자치도",제주특별자치도 제주시 외도1동 651-1,,생활방범,4,,외도1동 경로당 사거리,30,,064-710-8855,33.4869122,126.4266947,2019-07-18
"제주특별자치도",제주특별자치도 제주시 연오로73,제주특별자치도 제주시  오라3동 2964-1,생활방범,5,,중앙중 북측,30,,064-710-8855,33.48686885,126.5020371,2019-07-18
"제주특별자치도",제주특별자치도 제주시 노형동 915-6,,생활방범,1,,조랑말과 흑돼지앞,30,,064-710-8855,33.48670252,126.4853893,2019-07-18
"제주특별자치도",제주특별자치도 제주시 노형동 2584-1,,생활방범,5,,노형근린공원 1,30,,064-710-8855,33.48606957,126.4703062,2019-07-18
"제주특별자치도",제주특별자치도 제주시 노형동 2584-1,,생활방범,5,,노형근린공원 2,30,,064-710-8855,33.48606957,126.4703062,2019-07-18
"제주특별자치도",제주특별자치도 제주시 간월동로5갈 56,제주특별자치도 제주시 아라2동 1324-1,생활방범,4,,한라자동차운전학원 앞,30,,064-710-8855,33.48584965,126.5435034,2019-07-18
"제주특별자치도",제주특별자치도 제주시 애월읍 하귀1리 488-2,,생활방범,1,,하귀1리(하귀하나로마트 남),30,,064-710-8855,33.48567255,126.4115775,2019-07-18
"제주특별자치도",제주특별자치도 제주시 애월읍 하귀1리 488-2,,생활방범,1,,하귀1리(하귀하나로마트 북),30,,064-710-8855,33.48567255,126.4115775,2019-07-18
"제주특별자치도",제주특별자치도 제주시 연동 284-2,,생활방범,1,,투다리 연동점,30,,064-710-8855,33.48538144,126.4921046,2019-07-18
"제주특별자치도",제주특별자치도 제주시 노형동 2532-1,,생활방범,1,,이화아파트입구 4가,30,,064-710-8855,33.48487761,126.4740238,2019-07-18
"제주특별자치도",제주특별자치도 제주시 노형동 943,,생활방범,4,,국민연립 동측,30,,064-710-8855,33.48436959,126.4859253,2019-07-18
"제주특별자치도",제주특별자치도 제주시 기자동길 2,제주특별자치도 제주시 아라2동 1468-19,생활방범,4,,기자마을 안,30,,064-710-8855,33.48414072,126.5445474,2019-07-18
"제주특별자치도",제주특별자치도 제주시 연동334,,생활방범,5,,하와이관광호텔 사거리,30,,064-710-8855,33.4832206,126.491378,2019-07-18
"제주특별자치도",제주특별자치도 제주시 구산로50,제주특별자치도 제주시 아라1동 2360,생활방범,4,,제주여고 앞,30,,064-710-8855,33.4826673,126.5405542,2019-07-18
"제주특별자치도",제주특별자치도 제주시 외도1동 2552-16,,생활방범,5,,에뜨네미용실 사거리,30,,064-710-8855,33.4824056,126.419687,2019-07-18
"제주특별자치도",제주특별자치도 제주시 연북로45,제주특별자치도 제주시  노형동 722-3,생활방범,4,,메르헨하우스 옆,30,,064-710-8855,33.4822044,126.4863313,2019-07-18
"제주특별자치도",제주특별자치도 제주시 애월읍 하광로50,제주특별자치도 제주시 애월읍  하귀1리 238-1,생활방범,5,,근린공원 입구,30,,064-710-8855,33.48179823,126.4142009,2019-07-18
"제주특별자치도",제주특별자치도 제주시 아라2동 2995,,생활방범,4,,간드락복지회관 삼거리,30,,064-710-8855,33.4797347,126.5483688,2019-07-18
"제주특별자치도",제주특별자치도 제주시 연동 1546,,생활방범,5,,쌍봉냉면 뒤블럭,30,,064-710-8855,33.47967394,126.4900727,2019-07-18
"제주특별자치도",제주특별자치도 제주시 노형동 736,,생활방범,3,,제주향보쌈 앞(노형동),30,,064-710-8855,33.47885025,126.4799293,2019-07-18
"제주특별자치도",제주특별자치도 제주시 구좌읍 비자림로1929,제주특별자치도 제주시 구좌읍 송당리 805-4,생활방범,4,,송당입구 교차로,30,,064-710-8855,33.4787140,126.7827660,2019-07-18
"제주특별자치도",제주특별자치도 제주시 도평동 1403,,생활방범,4,,전원빌라 삼거리,30,,064-710-8855,33.47807766,126.4518583,2019-07-18
"제주특별자치도",제주특별자치도 제주시 도평동 1403,,생활방범,4,,도평골프연습장 입구 삼거리,30,,064-710-8855,33.47807766,126.4518583,2019-07-18
"제주특별자치도",제주특별자치도 제주시 능산길 6-3,제주특별자치도 제주시 영평동 2407-3,생활방범,5,,신성여고 정문,30,,064-710-8855,33.47786312,126.5616321,2019-07-18
"제주특별자치도",제주특별자치도 제주시 노형동 751,,생활방범,4,,태을갈비 앞(노형동),30,,064-710-8855,33.47783367,126.4797625,2019-07-18
"제주특별자치도",제주특별자치도 제주시 연화중길 12-5,제주특별자치도 제주시  연동 1514-3,생활방범,4,,리츠칼투어 앞,30,,064-710-8855,33.47770876,126.4881354,2019-07-18
"제주특별자치도",제주특별자치도 제주시 애월읍 하귀2리 1899-7,,생활방범,5,,하귀초후문 삼거리,30,,064-710-8855,33.47732233,126.4028189,2019-07-18
"제주특별자치도",제주특별자치도 제주시 애월읍 구엄리 873-13,,생활방범,4,,해오름어린이집 사거리,30,,064-710-8855,33.4771711,126.3795209,2019-07-18
"제주특별자치도",제주특별자치도 제주시 연화로4길 34,제주특별자치도 제주시  연동 1525-9,생활방범,4,,신우수산 옆,30,,064-710-8855,33.4770468,126.4907463,2019-07-18
"제주특별자치도",제주특별자치도 제주시 아봉로550,제주특별자치도 제주시 용강동 1264-1,생활방범,5,,용강동 마을회관 위,30,,064-710-8855,33.47686128,126.5865106,2019-07-18
"제주특별자치도",제주특별자치도 제주시 사송길 1,제주특별자치도 제주시  영평동 1878-13,생활방범,4,,영평상동복지회관 입구,30,,064-710-8855,33.47652708,126.5679042,2019-07-18
"제주특별자치도",제주특별자치도 제주시 노형동 762,,생활방범,3,,한스델리 동측(노형동),30,,064-710-8855,33.47651677,126.4800573,2019-07-18
"제주특별자치도",제주특별자치도 제주시 도평동 1405,,생활방범,6,,드랑드랑사거리,30,,064-710-8855,33.47622912,126.4472841,2019-07-18
"제주특별자치도",제주특별자치도 제주시 연동7길 3,제주특별자치도 제주시  연동 272-22,생활방범,4,,공영주차장 앞,30,,064-710-8855,33.4894381,126.4910280,2019-07-18
"제주특별자치도",제주특별자치도 제주시 아라1동 6172,,생활방범,5,,모닝빌 사거리,30,,064-710-8855,33.4753391,126.5470225,2019-07-18
"제주특별자치도",제주특별자치도 제주시 애월읍 신엄리 831-1,,생활방범,5,,중엄노인회관 사거리,30,,064-710-8855,33.47490565,126.3721357,2019-07-18
"제주특별자치도",제주특별자치도 제주시 연동13길 9,제주특별자치도 제주시  연동 292-36,생활방범,5,,낙지로 앞,30,,064-710-8855,33.4888428,126.4947860,2019-07-18
"제주특별자치도",제주특별자치도 제주시 월산남길 24,제주특별자치도 제주시  노형동 3286-2,생활방범,4,,큰숲어린이집 삼거리,30,,064-710-8855,33.4713228,126.4647463,2019-07-18
"제주특별자치도",제주특별자치도 제주시 구좌읍 중산간동로2285,제주특별자치도 제주시 구좌읍 1445-5,생활방범,5,,송당식당앞 사거리,30,,064-710-8855,33.47080229,126.7869759,2019-07-18
"제주특별자치도",제주특별자치도 제주시 구좌읍 비자림로1820,제주특별자치도 제주시 구좌읍 송당리 1571-19,생활방범,5,,송당 사거리,30,,064-710-8855,33.47074625,126.7765583,2019-07-18
"제주특별자치도",제주특별자치도 제주시 애월읍 고내리 462,,생활방범,4,,다락쉼터 공중화장실앞,30,,064-710-8855,33.47015283,126.3407581,2019-07-18
"제주특별자치도",제주특별자치도 제주시 아봉로370,제주특별자치도 제주시 월평동 1002-3,생활방범,4,,제주 월평마을회관 앞,30,,064-710-8855,33.46956378,126.5749079,2019-07-18
"제주특별자치도",제주특별자치도 제주시 오라2동 3828,,생활방범,4,,노형어린이집 삼거리,30,,064-710-8855,33.4693111,126.5103525,2019-07-18
"제주특별자치도",제주특별자치도 서귀포시 성산읍 오조리 622-3,,생활방범,4,,썬레이크빌 팬션입구,30,,064-710-8855,33.46707942,126.913274,2019-07-18
"제주특별자치도",제주특별자치도 제주시 애월읍 고성리 1448-1,,생활방범,4,,보로미마을 복지회관 옆,30,,064-710-8855,33.46575558,126.4097409,2019-07-18
"제주특별자치도",제주특별자치도 제주시 애월읍 애월리 1584-8,,생활방범,1,,애월리 남,30,,064-710-8855,33.46442281,126.3200488,2019-07-18
"제주특별자치도",제주특별자치도 제주시 애월읍 고내리 1370,,생활방범,4,,고내 경로당입구 삼거리,30,,064-710-8855,33.46251046,126.3356276,2019-07-18
"제주특별자치도",제주특별자치도 서귀포시 성산읍 오조리 774-3,,생활방범,5,,오조리사거리,30,,064-710-8855,33.46238206,126.9105923,2019-07-18
"제주특별자치도",제주특별자치도 제주시 애월읍 애월리 2482-2,,생활방범,4,,제주하늘푸른바다펜션,30,,064-710-8855,33.46237956,126.3126404,2019-07-18
"제주특별자치도",제주특별자치도 제주시 한북로176,제주특별자치도 제주시 오등동 286-7,생활방범,4,,낙원비치하우스 인근,30,,064-710-8855,33.46225593,126.5342497,2019-07-18
"제주특별자치도",제주특별자치도 제주시 애월읍 광령리 53-15,,생활방범,5,,제일빌리지 입구,30,,064-710-8855,33.46115153,126.4444658,2019-07-18
"제주특별자치도",제주특별자치도 제주시 애월읍 애월리 2628,,생활방범,1,,애월리 북,30,,064-710-8855,33.46101723,126.3348342,2019-07-18
"제주특별자치도",제주특별자치도 서귀포시 성산읍 오조리 2210,,생활방범,4,,어락게스트하우스 사거리,30,,064-710-8855,33.45977689,126.9016258,2019-07-18
"제주특별자치도",제주특별자치도 서귀포시 성산읍 오조리 2210,,생활방범,4,,오조리258번지 인근,30,,064-710-8855,33.45977689,126.9016258,2019-07-18
"제주특별자치도",제주특별자치도 서귀포시 성산읍 오조리 2210,,생활방범,4,,홍홍게스트하우스 사거리,30,,064-710-8855,33.45977689,126.9016258,2019-07-18
"제주특별자치도",제주특별자치도 서귀포시 성산읍 오조리 2210,,생활방범,4,,오조교회 삼거리,30,,064-710-8855,33.45977689,126.9016258,2019-07-18
"제주특별자치도",제주특별자치도 제주시 애월읍 하가리 1633,,생활방범,2,,더럭연화못카페 앞도로일대,30,,064-710-8855,33.45840568,126.3533068,2019-07-18
"제주특별자치도",제주특별자치도 서귀포시 성산읍 오조리 956-1,,생활방범,4,,아이니하우스 삼거리,30,,064-710-8855,33.45837164,126.9124182,2019-07-18
"제주특별자치도",제주특별자치도 제주시 제주대학로4길 16,,생활방범,4,,제대마을 입구,30,,064-710-8855,33.45661782,126.5543324,2019-07-18
"제주특별자치도",제주특별자치도 제주시 아라1동 6178,,생활방범,6,,아라농장 입구 오거리,30,,064-710-8855,33.4560213,126.5831587,2019-07-18
"제주특별자치도",제주특별자치도 제주시 애월읍 하가리 1465-1,,생활방범,5,,연꽃냉면사거리,30,,064-710-8855,33.45584304,126.3486657,2019-07-18
"제주특별자치도",제주특별자치도 제주시 애월읍 광령평화9길 9,제주특별자치도 제주시 애월읍  광령리 1003-8,생활방범,4,,길하우스 삼거리,30,,064-710-8855,33.4544930,126.4403730,2019-07-18
"제주특별자치도",제주특별자치도 제주시 애월읍 장전리 1797,,생활방범,4,,장전리458-3 삼거리,30,,064-710-8855,33.45233498,126.3908897,2019-07-18
"제주특별자치도",제주특별자치도 서귀포시 성산읍 수시로53,제주특별자치도 서귀포시 성산읍  수산리 547-3,생활방범,4,,수산초교입구서측,30,,064-710-8855,33.4495416,126.8874859,2019-07-18
"제주특별자치도",제주특별자치도 제주시 산천단동 3길 8,제주특별자치도 제주시 아라1동 362-39,생활방범,4,,폴리텍대학 입구,30,,064-710-8855,33.4485958,126.5598236,2019-07-18
"제주특별자치도",제주특별자치도 제주시 산천단동길 12,제주특별자치도 제주시 아라1동 4-123,생활방범,4,,산천단 마을회관,30,,064-710-8855,33.44771265,126.5577306,2019-07-18
"제주특별자치도",제주특별자치도 제주시 산천단동길 16,제주특별자치도 제주시 아라1동 4-8,생활방범,4,,제주바이오융합센터 앞,30,,064-710-8855,33.44748415,126.5584326,2019-07-18
"제주특별자치도",제주특별자치도 서귀포시 성산읍 고성리 1099-4,,생활방범,1,,한국물류 앞,30,,064-710-8855,33.44739447,126.9136477,2019-07-18
"제주특별자치도",제주특별자치도 제주시 영평동 2796,,생활방범,5,,이디현공동주택 사거리,30,,064-710-8855,33.44729156,126.5756388,2019-07-18
"제주특별자치도",제주특별자치도 서귀포시 성산읍 고성리 1100-4,,생활방범,1,,대한통운 앞,30,,064-710-8855,33.44720659,126.9139157,2019-07-18
"제주특별자치도",제주특별자치도 서귀포시 성산읍 수산리 575,,생활방범,4,,용눈이팬션앞,30,,064-710-8855,33.44691123,126.8874147,2019-07-18
"제주특별자치도",제주특별자치도 제주시 516로 3120,제주특별자치도 제주시 아라1동 396-30,생활방범,4,,춘강장애인복지회관 앞,30,,064-710-8855,33.4526894,126.5531188,2019-07-18
"제주특별자치도",제주특별자치도 서귀포시 성산읍 수산리 2472-1,,생활방범,5,,생태체험센터앞,30,,064-710-8855,33.43884403,126.8626978,2019-07-18
"제주특별자치도",제주특별자치도 제주시 구좌읍 송당리 산126-3,,생활방범,1,,송당리(세화방향 서),30,,064-710-8855,33.43749728,126.7405307,2019-07-18
"제주특별자치도",제주특별자치도 제주시 구좌읍 송당리 2822,,생활방범,1,,송당리(제주시 방향),30,,064-710-8855,33.43666592,126.7347267,2019-07-18
"제주특별자치도",제주특별자치도 서귀포시 성산읍 고성리 186-5,,생활방범,5,,섭지코지 회전교차로,30,,064-710-8855,33.43629613,126.9228317,2019-07-18
"제주특별자치도",제주특별자치도 제주시 구좌읍 송당리 산 126-7,,생활방범,1,,송당리(세화방향 동),30,,064-710-8855,33.43623565,126.7372584,2019-07-18
"제주특별자치도",제주특별자치도 제주시 구좌읍 송당리 2608-1,,생활방범,1,,송당리(교래방향),30,,064-710-8855,33.43532866,126.7351719,2019-07-18
"제주특별자치도",제주특별자치도 제주시 구좌읍 송당리 2635-6,,생활방범,1,,송당리(표선방향),30,,064-710-8855,33.43500693,126.7384462,2019-07-18
"제주특별자치도",제주특별자치도 제주시 애월읍 유수암평화5길 42,제주특별자치도 제주시 애월읍  유수암리 1381-11,생활방범,4,,두인빌리지 삼거리,30,,064-710-8855,33.4242468,126.4043097,2019-07-18
"제주특별자치도",제주특별자치도 제주시 한림읍 한림로739,제주특별자치도 제주시 한림읍  한수리 858-1,생활방범,4,,한수리사무소,30,,064-710-8855,33.42086563,126.2637347,2019-07-18
"제주특별자치도",제주특별자치도 제주시 한림읍 한림리 1314,,생활방범,1,,한림리1314,30,,064-710-8855,33.4182566,126.2634711,2019-07-18
"제주특별자치도",제주특별자치도 제주시 애월읍 어림비로207,제주특별자치도 제주시 애월읍  어음리 3574,생활방범,4,,감귤선과장삼거리,30,,064-710-8855,33.4159948,126.332936,2019-07-18
"제주특별자치도",제주특별자치도 제주시 한림읍 한림리 1582,,생활방범,1,,한림리 남,30,,064-710-8855,33.41467313,126.2670065,2019-07-18
"제주특별자치도",제주특별자치도 제주시 한림읍 한림리 1582,,생활방범,1,,한림리 북,30,,064-710-8855,33.41467313,126.2670065,2019-07-18
"제주특별자치도",제주특별자치도 제주시 한림읍 한림상로175,제주특별자치도 제주시 한림읍  한림리 1007,생활방범,5,,대호베리골아파트사거리,30,,064-710-8855,33.41406228,126.2691565,2019-07-18
"제주특별자치도",제주특별자치도 제주시 한림읍 한림리 1438-2,,생활방범,4,,한신사 입구,30,,064-710-8855,33.41322678,126.2629994,2019-07-18
"제주특별자치도",제주특별자치도 제주시 한림읍 한림리 1115-2,,생활방범,1,,CU한림중앙점,30,,064-710-8855,33.41271521,126.2650604,2019-07-18
"제주특별자치도",제주특별자치도 제주시 한림읍 한림리 969-9,,생활방범,5,,보건소삼거리,30,,064-710-8855,33.41194566,126.2685927,2019-07-18
"제주특별자치도",제주특별자치도 제주시 한림읍 문교길 15,제주특별자치도 제주시 한림읍  한림리 1531-6,생활방범,5,,영신아파트사거리,30,,064-710-8855,33.41086735,126.2638378,2019-07-18
"제주특별자치도",제주특별자치도 제주시 한림상로132,,생활방범,7,,한림읍사무소앞,30,,064-710-8855,33.4101040,126.2670984,2019-07-18
"제주특별자치도",제주특별자치도 제주시 문교길 27,,생활방범,5,,한림초 후문,30,,064-710-8855,33.4102335,126.2627253,2019-07-18
"제주특별자치도",제주특별자치도 제주시 한림읍 문교길 50,제주특별자치도 제주시 한림읍 한림리 1494-3,생활방범,4,,한림여중 후문부근,30,,064-710-8855,33.40977223,126.2602984,2019-07-18
"제주특별자치도",제주특별자치도 제주시 한림중앙로71-9,,생활방범,5,,한림체육관 입구,30,,064-710-8855,33.4089702,126.2684786,2019-07-18
"제주특별자치도",제주특별자치도 제주시 한림중앙로90-1,,생활방범,5,,한림종합운동장후문 입구,30,,064-710-8855,33.40679856,126.2674353,2019-07-18
"제주특별자치도",제주특별자치도 제주시 애월읍 평화로2072,제주특별자치도 제주시 애월읍  소길리 산211-4,생활방범,5,,소길교차로_면허시험장입구,30,,064-710-8855,33.40598673,126.3878192,2019-07-18
"제주특별자치도",제주특별자치도 서귀포시 성산읍 난산리 1492,,생활방범,5,,난산사거리,30,,064-710-8855,33.40275708,126.8647723,2019-07-18
"제주특별자치도",제주특별자치도 서귀포시 표선면 성읍리 632-1,,생활방범,1,,성읍1리사무소 동,30,,064-710-8855,33.39013588,126.7982568,2019-07-18
"제주특별자치도",제주특별자치도 서귀포시 표선면 성읍리 655,,생활방범,1,,성읍1리사무소 서,30,,064-710-8855,33.38989138,126.797887,2019-07-18
"제주특별자치도",제주특별자치도 서귀포시 성산읍 신산리 1026-2,,생활방범,1,,신산리,30,,064-710-8855,33.38252454,126.8770662,2019-07-18
"제주특별자치도",제주특별자치도 서귀포시 성산읍 삼달리 1065-5,,생활방범,5,,일출랜드 사거리,30,,064-710-8855,33.3810545,126.840767,2019-07-18
"제주특별자치도",제주특별자치도 서귀포시 성산읍 신산리 1100-16,,생활방범,1,,신산 농협지점,30,,064-710-8855,33.38029477,126.8761914,2019-07-18
"제주특별자치도",제주특별자치도 서귀포시 성산읍 신산리 1130-12,,생활방범,4,,해녀의집옆,30,,064-710-8855,33.37585564,126.8762101,2019-07-18
"제주특별자치도",제주특별자치도 제주시 한림읍 월령리 415-4,,생활방범,5,,월령리사무소 입구(월령슈퍼낚시앞)),30,,064-710-8855,33.37507535,126.2162499,2019-07-18
"제주특별자치도",제주특별자치도 서귀포시 성산읍 삼달리 2260,,생활방범,5,,미화미못 사거리,30,,064-710-8855,33.37280594,126.8480525,2019-07-18
"제주특별자치도",제주특별자치도 서귀포시 성산읍 풍천로226,제주특별자치도 서귀포시 성산읍  신풍리 791-1,생활방범,5,,신풍리민관앞,30,,064-710-8855,33.36096752,126.8357089,2019-07-18
"제주특별자치도",제주특별자치도 서귀포시 표선면 하천리 1565-3,,생활방범,3,,한마음초동쪽,30,,064-710-8855,33.35376446,126.8198231,2019-07-18
"제주특별자치도",제주특별자치도 제주시 한경면 신창리 262-2,,생활방범,1,,신창리(중앙슈퍼 동),30,,064-710-8855,33.34978292,126.1830616,2019-07-18
"제주특별자치도",제주특별자치도 서귀포시 표선면 세화1리 1123-3,,생활방범,4,,세화1리 보건소입구,30,,064-710-8855,33.34318944,126.8453313,2019-07-18
"제주특별자치도",제주특별자치도 서귀포시 성산읍 신천리 325-4,,생활방범,4,,오병이어민박 삼거리,30,,064-710-8855,33.34106598,126.852094,2019-07-18
"제주특별자치도",제주특별자치도 제주시 한경면 두모리 3023,,생활방범,1,,두모리(한경면사무소 서),30,,064-710-8855,33.33882978,126.1980567,2019-07-18
"제주특별자치도",제주특별자치도 서귀포시 표선면 표선중앙로59번길 14,제주특별자치도 서귀포시 표선면  표선리 573,생활방범,4,,썬마트앞,30,,064-710-8855,33.32743363,126.8327536,2019-07-18
"제주특별자치도",제주특별자치도 서귀포시 표선면 표선리 596-6,,생활방범,1,,표선리(제주은행),30,,064-710-8855,33.32684453,126.8335179,2019-07-18
"제주특별자치도",제주특별자치도 서귀포시 표선면 표선리 701-2,,생활방범,1,,표선리(표선면사무소 서),30,,064-710-8855,33.32670713,126.8321133,2019-07-18
"제주특별자치도",제주특별자치도 서귀포시 표선면 표선리 600-7,,생활방범,1,,표선리(표선면사무소 동),30,,064-710-8855,33.32653262,126.8324063,2019-07-18
"제주특별자치도",제주특별자치도 서귀포시 표선면 44-7,,생활방범,0,,표선해비치해변,30,,064-710-8855,33.32568993,126.8415902,2019-07-18
"제주특별자치도",제주특별자치도 서귀포시 표선면 표선리 829-3,,생활방범,4,,정환빌라앞,30,,064-710-8855,33.32421909,126.8346839,2019-07-18
"제주특별자치도",제주특별자치도 제주시 한경면 낙산로1,제주특별자치도 제주시 한경면 낙천리 1648-1,생활방범,4,,낙천리 팽나무민박 삼거리,30,,064-710-8855,33.3242196,126.2287432,2019-07-18
"제주특별자치도",제주특별자치도 제주시 한림읍 청수리 1730-7,,생활방범,5,,청수리 회전교차로 인근,30,,064-710-8855,33.3229007,126.2466446,2019-07-18
"제주특별자치도",제주특별자치도 서귀포시 남원읍 의귀리 1503-2,,생활방범,1,,의귀리(의귀초 동),30,,064-710-8855,33.31088509,126.7149685,2019-07-18
"제주특별자치도",제주특별자치도 서귀포시 남원읍 의귀리 1483-10,,생활방범,1,,의귀리(의귀초 서),30,,064-710-8855,33.31080515,126.7148681,2019-07-18
"제주특별자치도",제주특별자치도 서귀포시 안덕면 동광리 824-1,,생활방범,1,,동광리(제주방향),30,,064-710-8855,33.31045339,126.3410869,2019-07-18
"제주특별자치도",제주특별자치도 서귀포시 안덕면 동광리 825-3,,생활방범,1,,동광리(한림 방향),30,,064-710-8855,33.31034446,126.3406425,2019-07-18
"제주특별자치도",제주특별자치도 서귀포시 안덕면 동광리 942-5,,생활방범,1,,동광리(영어도시방향 북),30,,064-710-8855,33.31033868,126.3396847,2019-07-18
"제주특별자치도",제주특별자치도 서귀포시 안덕면 동광리 942-6,,생활방범,1,,동광리(영어도시방향 남),30,,064-710-8855,33.3101322,126.3395202,2019-07-18
"제주특별자치도",제주특별자치도 서귀포시 안덕면 동광리 809-1,,생활방범,1,,동광리(상창방향) (동광리(안덕방향)),30,,064-710-8855,33.3097326,126.3407682,2019-07-18
"제주특별자치도",제주특별자치도 서귀포시 표선면 표선리 2954,,생활방범,1,,표선리(표선리사무소),30,,064-710-8855,33.30955875,126.8086349,2019-07-18
"제주특별자치도",제주특별자치도 서귀포시 안덕면 동광리 943-4,,생활방범,1,,동광리(대정방향),30,,064-710-8855,33.3094427,126.3402196,2019-07-18
"제주특별자치도",제주특별자치도 서귀포시 안덕면 동광리 1597-1,,생활방범,6,,해바른도서관 사거리,30,,064-710-8855,33.30521247,126.3384205,2019-07-18
"제주특별자치도",제주특별자치도 제주시 한경면 고락로77,제주특별자치도 제주시 한경면 고산리 2000-7,생활방범,5,,고산2리 복지회관 근처,30,,064-710-8855,33.30254665,126.1879060,2019-07-18
"제주특별자치도",제주특별자치도 서귀포시 상효동 1122-5,,생활방범,1,,하례리입구 동,30,,064-710-8855,33.29967993,126.6006385,2019-07-18
"제주특별자치도",제주특별자치도 서귀포시 상효동 1122-5,,생활방범,1,,하례리입구 서,30,,064-710-8855,33.29967993,126.6006385,2019-07-18
"제주특별자치도",제주특별자치도 서귀포시 안덕면 서광리 329-7,,생활방범,5,,느영나영감귤창고 사거리,30,,064-710-8855,33.28872328,126.3298065,2019-07-18
"제주특별자치도",제주특별자치도 제주시 한경면 고산리 3993,,생활방범,1,,고산리(고산성당 앞),30,,064-710-8855,33.286369,126.1643064,2019-07-18
"제주특별자치도",제주특별자치도 제주시 한경면 고산리3993,,생활방범,1,,고산리(고산1리 남),30,,064-710-8855,33.286369,126.1643064,2019-07-18
"제주특별자치도",제주특별자치도 서귀포시 남원읍 남원리 2490-69,,생활방범,1,,남원리(비안동2),30,,064-710-8855,33.28060982,126.7211727,2019-07-18
"제주특별자치도",제주특별자치도 서귀포시 남원읍 남원리 196-3,,생활방범,1,,남원리(비안동1),30,,064-710-8855,33.28043814,126.7210822,2019-07-18
"제주특별자치도",제주특별자치도 서귀포시 남원읍 남원리 99-13,,생활방범,1,,남원읍사무소 맞은편,30,,064-710-8855,33.27943505,126.7205049,2019-07-18
"제주특별자치도",제주특별자치도 서귀포시 남원읍 남원리 116-6,,생활방범,1,,남원읍사무소,30,,064-710-8855,33.27872229,126.7173199,2019-07-18
"제주특별자치도",제주특별자치도 서귀포시 남원읍 태위로441번길 4,제주특별자치도 서귀포시 남원읍  남원리 2466-1,생활방범,4,,로드카페서측,30,,064-710-8855,33.2752746,126.6943436,2019-07-18
"제주특별자치도",제주특별자치도 서귀포시 대포동서로135,제주특별자치도 서귀포시  대포동 1867-8,생활방범,4,,대포마을복지회관옆,30,,064-710-8855,33.2425608,126.4321814,2019-07-18
"제주특별자치도",제주특별자치도 서귀포시 토평로72,제주특별자치도 서귀포시  토평동 1484-5,생활방범,4,,원디자인건축앞,30,,064-710-8855,33.27234803,126.5900537,2019-07-18
"제주특별자치도",제주특별자치도 서귀포시 토평동 3245,,생활방범,5,,시민축구장 사거리,30,,064-710-8855,33.27153808,126.5900028,2019-07-18
"제주특별자치도",제주특별자치도 서귀포시 토평동 3245,,생활방범,5,,교량사거리,30,,064-710-8855,33.27153808,126.5900028,2019-07-18
"제주특별자치도",제주특별자치도 서귀포시 남원읍 하례로258,제주특별자치도 서귀포시 남원읍  하례리 740-1,생활방범,5,,제주산지유통센터북측,30,,064-710-8855,33.27047897,126.6235879,2019-07-18
"제주특별자치도",제주특별자치도 서귀포시 토평로50번길 4,제주특별자치도 서귀포시  토평동 1338,생활방범,5,,토평동다목적회관앞,30,,064-710-8855,33.26996847,126.5895706,2019-07-18
"제주특별자치도",제주특별자치도 서귀포시 엉또로124-7,제주특별자치도 서귀포시  강정동 1843,생활방범,4,,엉또다리 인근,30,,064-710-8855,33.2673668,126.4970261,2019-07-18
"제주특별자치도",제주특별자치도 서귀포시 신효중앙로37,제주특별자치도 서귀포시  신효동 680,생활방범,5,,농산물관리원서귀사무소입구,30,,064-710-8855,33.2670620,126.6139154,2019-07-18
"제주특별자치도",제주특별자치도 서귀포시 중산간서로960,제주특별자치도 서귀포시  색달동 1608-1,생활방범,5,,색달입구삼거리,30,,064-710-8855,33.2664708,126.4145537,2019-07-18
"제주특별자치도",제주특별자치도 서귀포시 동홍동 1671,,생활방범,4,,주공5단지 뒤편 삼거리,30,,064-710-8855,33.26550647,126.560421,2019-07-18
"제주특별자치도",제주특별자치도 서귀포시 중앙로215,제주특별자치도 서귀포시  서홍동 253-5,생활방범,5,,서홍사거리,30,,064-710-8855,33.26388897,126.5584310,2019-07-18
"제주특별자치도",제주특별자치도 서귀포시 효돈로142,제주특별자치도 서귀포시  신효동 841,생활방범,4,,신효미용실앞,30,,064-710-8855,33.2638048,126.6141106,2019-07-18
"제주특별자치도",제주특별자치도 서귀포시 회수동 441-5,,생활방범,5,,회수사거리,30,,064-710-8855,33.26313027,126.4434875,2019-07-18
"제주특별자치도",제주특별자치도 서귀포시 하효동 1460,,생활방범,5,,쇠소깍 제트보트 삼거리,30,,064-710-8855,33.2621102,126.623225,2019-07-18
"제주특별자치도",제주특별자치도 서귀포시 호근동 1170-2,,생활방범,5,,유진철물공구 앞,30,,064-710-8855,33.2613442,126.5296516,2019-07-18
"제주특별자치도",제주특별자치도 서귀포시 신효동 893-1,,생활방범,4,,동산빌라 입구 오거리,30,,064-710-8855,33.26121242,126.6122698,2019-07-18
"제주특별자치도",제주특별자치도 서귀포시 하원동 1836-1,,생활방범,4,,제2회수교 입구,30,,064-710-8855,33.26113458,126.4530544,2019-07-18
"제주특별자치도",제주특별자치도 서귀포시 하효동 601-1,,생활방범,4,,노인경로당 인근,30,,064-710-8855,33.25854212,126.6175834,2019-07-18
"제주특별자치도",제주특별자치도 서귀포시 색달동 2087,,생활방범,4,,색달입구교차로,30,,064-710-8855,33.25830301,126.4040291,2019-07-18
"제주특별자치도",제주특별자치도 서귀포시 강정동 138,,생활방범,4,,문화2공원인근,30,,064-710-8855,33.25770898,126.5082627,2019-07-18
"제주특별자치도",제주특별자치도 서귀포시 일과리 산1-2,,생활방범,4,,금오개발 삼거리,30,,064-710-8855,33.257475,126.2295178,2019-07-18
"제주특별자치도",제주특별자치도 서귀포시 호근동 2142,,생활방범,5,,코아루아파트 삼거리,30,,064-710-8855,33.25704824,126.5320007,2019-07-18
"제주특별자치도",제주특별자치도 서귀포시 동홍서로88-3,제주특별자치도 서귀포시  동홍동 503-2,생활방범,5,,대호동홍아파트사거리,30,,064-710-8855,33.25667578,126.5698544,2019-07-18
"제주특별자치도",제주특별자치도 서귀포시 장수로20번길 1,제주특별자치도 서귀포시  동홍동 1528-3,생활방범,5,,우성빌라앞사거리,30,,064-710-8855,33.25649248,126.5658524,2019-07-18
"제주특별자치도",제주특별자치도 서귀포시 호근동 1756-3,,생활방범,4,,한성빌라 인근 삼거리,30,,064-710-8855,33.25573535,126.5283667,2019-07-18
"제주특별자치도",제주특별자치도 서귀포시 중문동 1841-8,,생활방범,5,,회수입구교차로,30,,064-710-8855,33.25567999,126.4348654,2019-07-18
"제주특별자치도",제주특별자치도 서귀포시 검은여로151,제주특별자치도 서귀포시  토평동 893,생활방범,4,,삼성여고앞,30,,064-710-8855,33.2549561,126.5843136,2019-07-18
"제주특별자치도",제주특별자치도 서귀포시 중문동 1576-1,,생활방범,4,,CU편의점앞,30,,064-710-8855,33.25428836,126.4245938,2019-07-18
"제주특별자치도",제주특별자치도 서귀포시 신서로32번길 32,제주특별자치도 서귀포시  강정동 168,생활방범,5,,강정제1호공원 인근,30,,064-710-8855,33.25406475,126.505275977,2019-07-18
"제주특별자치도",제주특별자치도 서귀포시 신동로47번길 9,제주특별자치도 서귀포시  서호동 1469-8,생활방범,5,,돌아온놀부네 사거리,30,,064-710-8855,33.25275566,126.5119659,2019-07-18
"제주특별자치도",제주특별자치도 서귀포시 중앙로89번길 7,제주특별자치도 서귀포시  서귀동 300-3,생활방범,5,,서귀포대정식당앞,30,,064-710-8855,33.2523020115,126.5598384400,2019-07-18
"제주특별자치도",제주특별자치도 서귀포시 서호동 1576,,생활방범,4,,부영사랑으로 동측,30,,064-710-8855,33.25189733,126.5235521,2019-07-18
"제주특별자치도",제주특별자치도 서귀포시 강정동 4040-13,,생활방범,5,,용흥마을회관 사거리,30,,064-710-8855,33.25187939,126.4814466,2019-07-18
"제주특별자치도",제주특별자치도 서귀포시 안덕면 화순서서로7번길 4,제주특별자치도 서귀포시 안덕면  화순리 1171-7,생활방범,5,,남제주발전본부사택인근,30,,064-710-8855,33.2516320,126.3300626,2019-07-18
"제주특별자치도",제주특별자치도 서귀포시 서귀동 336,,생활방범,1,,서귀포 중앙로터리 동,30,,064-710-8855,33.25144165,126.5613273,2019-07-18
"제주특별자치도",제주특별자치도 서귀포시 서귀동 343,,생활방범,5,,서귀포교회 사거리,30,,064-710-8855,33.25140842,126.5578613,2019-07-18
"제주특별자치도",제주특별자치도 서귀포시 서귀동 343,,생활방범,4,,진이세탁 삼거리,30,,064-710-8855,33.25140842,126.5578613,2019-07-18
"제주특별자치도",제주특별자치도 서귀포시 서귀동 339,,생활방범,5,,이룸광고 사거리,30,,064-710-8855,33.25124011,126.5661094,2019-07-18
"제주특별자치도",제주특별자치도 서귀포시 중앙동 280-26,,생활방범,1,,세영슈퍼 앞,30,,064-710-8855,33.2511714,126.5624051,2019-07-18
"제주특별자치도",제주특별자치도 서귀포시 김정문화로57,제주특별자치도 서귀포시  서호동 1476-5,생활방범,5,,새마을금고 앞,30,,064-710-8855,33.25113638,126.5109453,2019-07-18
"제주특별자치도",제주특별자치도 서귀포시 신효중앙로72,제주특별자치도 서귀포시  신효동 548-11,생활방범,4,,대신조립식건축앞 삼거리,30,,064-710-8855,33.2700002,126.6131809,2019-07-18
"제주특별자치도",제주특별자치도 서귀포시 중앙로72번길 12,,생활방범,1,,신라미용실앞 5가,30,,064-710-8855,33.25092375,126.5624044,2019-07-18
"제주특별자치도",제주특별자치도 서귀포시 중앙로62번길 18,,생활방범,1,,매일올레시장 어린이놀이터,30,,064-710-8855,33.25014849,126.5636786,2019-07-18
"제주특별자치도",제주특별자치도 서귀포시 천지로28,,생활방범,1,,유진카페 앞,30,,064-710-8855,33.25012927,126.5609119,2019-07-18
"제주특별자치도",제주특별자치도 서귀포시 서호동 1577,,생활방범,5,,부영아파트입구 사거리,30,,064-710-8855,33.25006455,126.5210874,2019-07-18
"제주특별자치도",제주특별자치도 서귀포시 중정로91번길 23,제주특별자치도 서귀포시  서귀동 271-32,생활방범,4,,조방칼국수옆,30,,064-710-8855,33.2498932,126.5645427,2019-07-18
"제주특별자치도",제주특별자치도 서귀포시 서문로29번길 15,,생활방범,1,,동언식당앞,30,,064-710-8855,33.24890072,126.5594598,2019-07-18
"제주특별자치도",제주특별자치도 서귀포시 동홍동 377-12,,생활방범,5,,동홍주공4단지입구,30,,064-710-8855,33.24882709,126.5720048,2019-07-18
"제주특별자치도",제주특별자치도 서귀포시 중앙로47번길 6,,생활방범,1,,동아리노래연습장,30,,064-710-8855,33.24881054,126.5611202,2019-07-18
"제주특별자치도",제주특별자치도 서귀포시 법환동 1654-18,,생활방범,5,,리조트빌라 사거리,30,,064-710-8855,33.24862709,126.5104638,2019-07-18
"제주특별자치도",제주특별자치도 서귀포시 이중섭로5,,생활방범,1,,대청마루 서쪽,30,,064-710-8855,33.2475149,126.5644785,2019-07-18
"제주특별자치도",제주특별자치도 서귀포시 이중섭로3,제주특별자치도 서귀포시  서귀동 406-16,생활방범,4,,우생당뒷골목,30,,064-710-8855,33.24777405,126.5644113,2019-07-18
"제주특별자치도",제주특별자치도 서귀포시 대정읍 인성리 368-4,,생활방범,5,,보성초교입구교차로(보성농협앞),30,,064-710-8855,33.24764028,126.2768499,2019-07-18
"제주특별자치도",제주특별자치도 서귀포시 태평로449번길 12,제주특별자치도 서귀포시  서귀동 196,생활방범,4,,행복예감입구,30,,064-710-8855,33.24744926,126.5678146,2019-07-18
"제주특별자치도",제주특별자치도 서귀포시 태평로439번길 8,,생활방범,5,,중앙교회 입구,30,,064-710-8855,33.2467338,126.5664013,2019-07-18
"제주특별자치도",제주특별자치도 서귀포시 태평로439번길 8,,생활방범,4,,중앙교회 후문,30,,064-710-8855,33.2467338,126.5664013,2019-07-18
"제주특별자치도",제주특별자치도 서귀포시 태평로439번길 8,,생활방범,4,,중앙교회 후문 골목,30,,064-710-8855,33.2467338,126.5664013,2019-07-18
"제주특별자치도",제주특별자치도 서귀포시 안덕면 화순리 1074-11,,생활방범,1,,화순리(안덕농협 남) (화순리(안덕농협 북)),30,,064-710-8855,33.24670142,126.335502,2019-07-18
"제주특별자치도",제주특별자치도 서귀포시 안덕면 화순리 1079-4,,생활방범,1,,화순리(안덕농협 북) (화순리(안덕농협 남)),30,,064-710-8855,33.24645051,126.3349626,2019-07-18
"제주특별자치도",제주특별자치도 서귀포시 동부로14,제주특별자치도 서귀포시  서귀동 961-30,생활방범,5,,대림빌라옆,30,,064-710-8855,33.2460867,126.5696384,2019-07-18
"제주특별자치도",제주특별자치도 서귀포시 서귀동 962-92,,생활방범,5,,진영슈퍼 사거리,30,,064-710-8855,33.24457129,126.5670853,2019-07-18
"제주특별자치도",제주특별자치도 서귀포시 태평로98,제주특별자치도 서귀포시  호근동 1557-1,생활방범,4,,서귀여고 앞,30,,064-710-8855,33.24340892,126.5330404,2019-07-18
"제주특별자치도",제주특별자치도 서귀포시 하예동 302-1,,생활방범,5,,하예동마을회관앞사거리,30,,064-710-8855,33.24334368,126.3864805,2019-07-18
"제주특별자치도",제주특별자치도 서귀포시 서귀동 717-1,,생활방범,5,,아리스호텔옆사거리,30,,064-710-8855,33.24304056,126.5645053,2019-07-18
"제주특별자치도",제주특별자치도 서귀포시 서귀동 696-4,,생활방범,4,,서귀포요양병원 삼거리,30,,064-710-8855,33.24169322,126.5640853,2019-07-18
"제주특별자치도",제주특별자치도 서귀포시 칠십리로39,제주특별자치도 서귀포시  서귀동 660-3,생활방범,4,,야한주방 앞,30,,064-710-8855,33.2412042,126.5616343,2019-07-18
"제주특별자치도",제주특별자치도 서귀포시 천지연로29번길 12,제주특별자치도 서귀포시  서귀동 688-2,생활방범,5,,마이호텔앞,30,,064-710-8855,33.24083303,126.5630047,2019-07-18
"제주특별자치도",제주특별자치도 서귀포시 중문동 2774,,생활방범,1,,중문우체국,30,,064-710-8855,33.24023886,126.4280144,2019-07-18
"제주특별자치도",제주특별자치도 서귀포시 중문동 2774,,생활방범,1,,중문우체국 맞은편,30,,064-710-8855,33.24023886,126.4280144,2019-07-18
"제주특별자치도",제주특별자치도 서귀포시 안덕면 창천리 1447,,생활방범,5,,제주그루 사거리,30,,064-710-8855,33.23835988,126.3685539,2019-07-18
"제주특별자치도",제주특별자치도 서귀포시 하예동 1962,,생활방범,4,,하예동 마을회관 삼거리,30,,064-710-8855,33.23834117,126.3873835,2019-07-18
"제주특별자치도",제주특별자치도 서귀포시 하예동 1962,,생활방범,4,,중문빌리지 삼거리,30,,064-710-8855,33.23834117,126.3873835,2019-07-18
"제주특별자치도",제주특별자치도 서귀포시 하예동 1962-1,,생활방범,4,,세인트하우스 삼거리,30,,064-710-8855,33.23834117,126.3873835,2019-07-18
"제주특별자치도",제주특별자치도 서귀포시 법환동 1654,,생활방범,5,,법환동 마을회관 사거리,30,,064-710-8855,33.23782234,126.5133125,2019-07-18
"제주특별자치도",제주특별자치도 서귀포시 법환로27-1,제주특별자치도 서귀포시  법환동 1271,생활방범,5,,농협앞,30,,064-710-8855,33.23721952,126.5125205,2019-07-18
"제주특별자치도",제주특별자치도 서귀포시 법환동 163-4,,생활방범,4,,법환포구 공연장 인근,30,,064-710-8855,33.23603968,126.5149357,2019-07-18
"제주특별자치도",제주특별자치도 서귀포시 안덕면 난드르로11-4,제주특별자치도 서귀포시 안덕면  창천리 820-6,생활방범,4,,GS25편의점 앞(안덕),30,,064-710-8855,33.2345280,126.3670506,2019-07-18
"제주특별자치도",제주특별자치도 서귀포시 하예동 1744-4,,생활방범,5,,하예동 어촌계 사거리,30,,064-710-8855,33.23339528,126.374266,2019-07-18
"제주특별자치도",제주특별자치도 서귀포시 대정읍 동일하모로219번길 12,제주특별자치도 서귀포시 대정읍  하모리 1570-5,생활방범,4,,원보빌라인근삼거리,30,,064-710-8855,33.22671877,126.2551081,2019-07-18
"제주특별자치도",제주특별자치도 서귀포시 대정읍 하모리 1443-,,생활방범,1,,대정읍사무소,30,,064-710-8855,33.22582387,126.2520239,2019-07-18
"제주특별자치도",제주특별자치도 서귀포시 대정읍 하모리 1417-1,,생활방범,1,,하모리(팔도상회 앞),30,,064-710-8855,33.22577493,126.2527903,2019-07-18
"제주특별자치도",제주특별자치도 서귀포시 대정읍 신영로93,제주특별자치도 서귀포시 대정읍  하모리 2121,생활방범,5,,모슬포한의원앞,30,,064-710-8855,33.2197580,126.2512752,2019-07-18
"제주특별자치도",제주특별자치도 서귀포시 대정읍 최남단해안로15번길 12,제주특별자치도 서귀포시 대정읍  하모리 767-8,생활방범,5,,서부보건소입구,30,,064-710-8855,33.218708,126.2534156,2019-07-18
"제주특별자치도",제주특별자치도 서귀포시 대정읍 최남단해안로125번길 3,제주특별자치도 서귀포시 대정읍  하모리 645-17,생활방범,5,,여객선대합실주차장앞,30,,064-710-8855,33.21168246,126.2571631,2019-07-18
"제주특별자치도",제주특별자치도 제주시 삼양1동 1660-5,,시설물관리,9,,삼양선사유적지,30,,064-710-8855,33.5236331,126.5859866,2019-07-18
"제주특별자치도",제주특별자치도 제주시 삼도2동 30-1,,시설물관리,7,,목관아지(내부),30,,064-710-8855,33.5144651,126.5208242,2019-07-18
"제주특별자치도",제주특별자치도 제주시 삼도2동 30-1,,시설물관리,4,,관덕정(외부),30,,064-710-8855,33.5144651,126.5208242,2019-07-18
"제주특별자치도",제주특별자치도 제주시 용담1동 135-9,,시설물관리,16,,서문시장,30,,064-710-8855,33.5116083,126.5173121,2019-07-18
"제주특별자치도",제주특별자치도 제주시 일도2동 1146,,시설물관리,6,,동문시장,30,,064-710-8855,33.5115863,126.523905,2019-07-18
"제주특별자치도",제주특별자치도 제주시 도두1동 1204-1,,시설물관리,10,,제주오일시장,30,,064-710-8855,33.4966246,126.4716214,2019-07-18
"제주특별자치도",제주특별자치도 서귀포시 성산읍 고성리 1181-1,,시설물관리,6,,고성오일시장내,30,,064-710-8855,33.45175134,126.9131232,2019-07-18
"제주특별자치도",제주특별자치도 제주시 애월읍 고성리 1126-1,,시설물관리,9,,항목유적지,30,,064-710-8855,33.44713157,126.4143257,2019-07-18
"제주특별자치도",제주특별자치도 제주시 한림읍 대림리 1698-4,,시설물관리,7,,한림오일시장,30,,064-710-8855,33.42047513,126.2740545,2019-07-18
"제주특별자치도",제주특별자치도 제주시 한림읍 한림리 1314-58,,시설물관리,1,,한림매일시장,30,,064-710-8855,33.4167934,126.2625162,2019-07-18
"제주특별자치도",제주특별자치도 서귀포시 법환동 914,,시설물관리,7,,서귀포월드컵경기장,30,,064-710-8855,33.24645031,126.5090628,2019-07-18
"제주특별자치도",제주특별자치도 서귀포시 서귀동 227-1,,시설물관리,22,,매일올레시장,30,,064-710-8855,33.2423032,126.5642775,2019-07-18
"제주특별자치도",제주특별자치도 서귀포시 대정읍 신영로36번길 65,,시설물관리,10,,대정오일시장(모슬포오일시장),30,,064-710-8855,33.22053319,126.2483125,2019-07-18
"제주특별자치도",제주특별자치도 제주시 우도면 우도로 156-11,,어린이보호,5,,우도초등학교,30,,064-710-8855,33.5059532,126.9556237,2019-07-18
"제주특별자치도",제주특별자치도 제주시 우도면 연평리 1442,,어린이보호,4,,우도초 정문,30,,064-710-8855,33.50557562,126.9553403,2019-07-18
"제주특별자치도",제주특별자치도 제주시 우도면 연평리 1442,,어린이보호,4,,우도초 후문,30,,064-710-8855,33.50557562,126.9553403,2019-07-18
"제주특별자치도",제주특별자치도 제주시 우도면 연평리 2652-1,,어린이보호,4,,우도초(선착장앞),30,,064-710-8855,33.49421416,126.9471593,2019-07-18
"제주특별자치도",제주특별자치도 서귀포시 성산읍 한도로 217,,어린이보호,0,,성산초등학교,30,,064-710-8855,33.4683631,126.9318639,2019-07-18
"제주특별자치도",제주특별자치도 서귀포시 성산읍 성산리 333,,어린이보호,4,,성산초 정문,30,,064-710-8855,33.46744545,126.9314762,2019-07-18
"제주특별자치도",제주특별자치도 서귀포시 성산읍 오조리 6-1,,어린이보호,5,,식산공원(갑문교 서측),30,,064-710-8855,33.46874953,126.9210679,2019-07-18
"제주특별자치도",제주특별자치도 서귀포시 성산읍 고성리 298-49,,어린이보호,4,,효명어린이집,30,,064-710-8855,33.45015268,126.9164449,2019-07-18
"제주특별자치도",제주특별자치도 서귀포시 성산읍 고성리 1130-3,,어린이보호,5,,동남초 정문,30,,064-710-8855,33.44921148,126.9149287,2019-07-18
"제주특별자치도",제주특별자치도 서귀포시 성산읍 고성리 1130-3,,어린이보호,6,,동남초 교차로,30,,064-710-8855,33.44921148,126.9149287,2019-07-18
"제주특별자치도",제주특별자치도 서귀포시 성산읍 고성오조로 55,,어린이보호,8,,동남초등학교,30,,064-710-8855,33.4488122,126.9141344,2019-07-18
"제주특별자치도",제주특별자치도 서귀포시 성산읍 오조리 61-10,,어린이보호,5,,성신유치원,30,,064-710-8855,33.45400469,126.9140605,2019-07-18
"제주특별자치도",제주특별자치도 서귀포시 성산읍 고성리 1090-2,,어린이보호,4,,성산원광어린이집,30,,064-710-8855,33.4488626,126.9116921,2019-07-18
"제주특별자치도",제주특별자치도 제주시 구좌읍 종달리 478-14,,어린이보호,6,,종달초(종달포구입구),30,,064-710-8855,33.49711052,126.9109189,2019-07-18
"제주특별자치도",제주특별자치도 제주시 구좌읍 종달로7길 5,,어린이보호,8,,종달초등학교,30,,064-710-8855,33.4926703,126.8974265,2019-07-18
"제주특별자치도",제주특별자치도 서귀포시 성산읍 온평리 1578-1,,어린이보호,3,,온평초 정문,30,,064-710-8855,33.40773106,126.897374,2019-07-18
"제주특별자치도",제주특별자치도 제주시 구좌읍 종달리 1918,,어린이보호,3,,종달초 정문,30,,064-710-8855,33.49245242,126.8971787,2019-07-18
"제주특별자치도",제주특별자치도 제주시 구좌읍 종달리 1963-2,,어린이보호,6,,종달초 후문,30,,064-710-8855,33.49198516,126.8970786,2019-07-18
"제주특별자치도",제주특별자치도 서귀포시 성산읍 일주동로 4740,,어린이보호,8,,온평초등학교,30,,064-710-8855,33.4084084,126.8966997,2019-07-18
"제주특별자치도",제주특별자치도 서귀포시 성산읍 시흥리 1173-3,,어린이보호,5,,시흥초 정문,30,,064-710-8855,33.47848476,126.8962512,2019-07-18
"제주특별자치도",제주특별자치도 서귀포시 성산읍 시흥상동로 113,,어린이보호,7,,시흥초등학교,30,,064-710-8855,33.4796300,126.8955819,2019-07-18
"제주특별자치도",제주특별자치도 서귀포시 성산읍 수산리 580,,어린이보호,6,,수산초 정문,30,,064-710-8855,33.44665911,126.8849294,2019-07-18
"제주특별자치도",제주특별자치도 서귀포시 성산읍 수시로 9,,어린이보호,8,,수산초등학교,30,,064-710-8855,33.4473655,126.8852217,2019-07-18
"제주특별자치도",제주특별자치도 서귀포시 성산읍 수산리 640-3,,어린이보호,5,,수산초 후문,30,,064-710-8855,33.44695938,126.8843039,2019-07-18
"제주특별자치도",제주특별자치도 제주시 구좌읍 일주동로 3378,,어린이보호,8,,하도초등학교,30,,064-710-8855,33.5173971,126.8781328,2019-07-18
"제주특별자치도",제주특별자치도 제주시 구좌읍 하도리 3352-1,,어린이보호,3,,하도초 정문,30,,064-710-8855,33.51733683,126.8779431,2019-07-18
"제주특별자치도",제주특별자치도 서귀포시 성산읍 신산리 963,,어린이보호,3,,신산초 정문,30,,064-710-8855,33.38140026,126.8765666,2019-07-18
"제주특별자치도",제주특별자치도 서귀포시 성산읍 신산리 963,,어린이보호,3,,신산초 후문,30,,064-710-8855,33.38140026,126.8765666,2019-07-18
"제주특별자치도",제주특별자치도 서귀포시 성산읍 일주동로 5104,,어린이보호,0,,신산초등학교,30,,064-710-8855,33.3816737,126.8755242,2019-07-18
"제주특별자치도",제주특별자치도 제주시 구좌읍 상도리 471-32,,어린이보호,5,,세화공원,30,,064-710-8855,33.52156969,126.8638686,2019-07-18
"제주특별자치도",제주특별자치도 제주시 구좌읍 세화7길 19,,어린이보호,1,,김녕초 뒷골목,30,,064-710-8855,33.5235859,126.8596676,2019-07-18
"제주특별자치도",제주특별자치도 제주시 구좌읍 세화리 1382-28,,어린이보호,4,,세화초 후문,30,,064-710-8855,33.52355995,126.8595178,2019-07-18
"제주특별자치도",제주특별자치도 제주시 구좌읍 구좌로 65,,어린이보호,9,,세화초등학교,30,,064-710-8855,33.5224180,126.8589207,2019-07-18
"제주특별자치도",제주특별자치도 제주시 구좌읍 세화리 1391,,어린이보호,6,,세화초 정문,30,,064-710-8855,33.52240051,126.8587668,2019-07-18
"제주특별자치도",제주특별자치도 제주시 구좌읍 세화리 1301,,어린이보호,5,,세화어린이집,30,,064-710-8855,33.51976969,126.8570036,2019-07-18
"제주특별자치도",제주특별자치도 제주시 구좌읍 세화리 3645-1,,어린이보호,5,,세화어린이공원,30,,064-710-8855,33.52593554,126.8546502,2019-07-18
"제주특별자치도",제주특별자치도 서귀포시 성산읍 일주동로 5559,,어린이보호,5,,풍천초 교차로(신천사거리),30,,064-710-8855,33.34635622,126.8518117,2019-07-18
"제주특별자치도",제주특별자치도 서귀포시 성산읍 풍천로 18,,어린이보호,6,,풍천초 정문,30,,064-710-8855,33.34925075,126.8500590,2019-07-18
"제주특별자치도",제주특별자치도 서귀포시 성산읍 풍천로 18,,어린이보호,6,,풍천초등학교,30,,064-710-8855,33.34925075,126.8500590,2019-07-18
"제주특별자치도",제주특별자치도 제주시 구좌읍 평대리 3344,,어린이보호,4,,평대초 후문,30,,064-710-8855,33.52400213,126.8475269,2019-07-18
"제주특별자치도",제주특별자치도 제주시 구좌읍 일주동로 2979,,어린이보호,8,,평대초등학교,30,,064-710-8855,33.5295576,126.8404001,2019-07-18
"제주특별자치도",제주특별자치도 제주시 구좌읍 평대리 650,,어린이보호,5,,평대초 정문,30,,064-710-8855,33.52928822,126.8404762,2019-07-18
"제주특별자치도",제주특별자치도 서귀포시 표선면 표선동서로 293,,어린이보호,4,,표선초등학교,30,,064-710-8855,33.3298443,126.8347765,2019-07-18
"제주특별자치도",제주특별자치도 서귀포시 표선면 표선리 463-5,,어린이보호,4,,표선초 후문,30,,064-710-8855,33.32875147,126.8351706,2019-07-18
"제주특별자치도",제주특별자치도 서귀포시 표선면 표선리 721,,어린이보호,5,,표선원광어린이집,30,,064-710-8855,33.32592478,126.8297761,2019-07-18
"제주특별자치도",제주특별자치도 제주시 구좌읍 한동리 1182-6,,어린이보호,5,,한동초 정문,30,,064-710-8855,33.53759681,126.8290151,2019-07-18
"제주특별자치도",제주특별자치도 제주시 구좌읍 일주동로 2831,,어린이보호,8,,한동초등학교,30,,064-710-8855,33.5389453,126.8286308,2019-07-18
"제주특별자치도",제주특별자치도 제주시 구좌읍 한동리1149,,어린이보호,5,,한동초 후문,30,,064-710-8855,33.53886823,126.826970,2019-07-18
"제주특별자치도",제주특별자치도 서귀포시 표선면 표선관정로 16,,어린이보호,5,,표선어린이집,30,,064-710-8855,33.3285153,126.8238599,2019-07-18
"제주특별자치도",제주특별자치도 서귀포시 표선면 한마음초등로 408,,어린이보호,9,,한마음초등학교,30,,064-710-8855,33.3521499,126.8149592,2019-07-18
"제주특별자치도",제주특별자치도 서귀포시 표선면 하천리 1805-7,,어린이보호,6,,한마음초,30,,064-710-8855,33.35283415,126.8140304,2019-07-18
"제주특별자치도",제주특별자치도 서귀포시 표선면 표선리 2954,,어린이보호,4,,표선초(병설유치원 서측),30,,064-710-8855,33.30955875,126.8086349,2019-07-18
"제주특별자치도",제주특별자치도 서귀포시 표선면 일주동로6285번길 8,,어린이보호,9,,가마초등학교,30,,064-710-8855,33.3057635,126.7999142,2019-07-18
"제주특별자치도",제주특별자치도 서귀포시 표선면 세화리 1540-24,,어린이보호,5,,가마초(정류소),30,,064-710-8855,33.30647393,126.8000661,2019-07-18
"제주특별자치도",제주특별자치도 서귀포시 표선면 세화리 1538-3,,어린이보호,3,,가마초,30,,064-710-8855,33.30537294,126.7996782,2019-07-18
"제주특별자치도",제주특별자치도 서귀포시 표선면 성읍리 3294-5,,어린이보호,5,,성읍초 교차로,30,,064-710-8855,33.38306863,126.7993029,2019-07-18
"제주특별자치도",제주특별자치도 서귀포시 표선면 성읍리 1028-1,,어린이보호,1,,성읍어린이집,30,,064-710-8855,33.38082605,126.798906,2019-07-18
"제주특별자치도",제주특별자치도 제주시 구좌읍 월정리 100,,어린이보호,4,,구좌중앙초 정문,30,,064-710-8855,33.55149826,126.7980562,2019-07-18
"제주특별자치도",제주특별자치도 서귀포시 표선면 성읍민속로 65,,어린이보호,0,,성읍초등학교,30,,064-710-8855,33.3839823,126.7981270,2019-07-18
"제주특별자치도",제주특별자치도 서귀포시 표선면 성읍리 1002,,어린이보호,4,,성읍초 후문,30,,064-710-8855,33.38357546,126.7975426,2019-07-18
"제주특별자치도",제주특별자치도 제주시 구좌읍 월정7길 1,,어린이보호,8,,구좌중앙초등학교,30,,064-710-8855,33.5518085,126.7978725,2019-07-18
"제주특별자치도",제주특별자치도 제주시 구좌읍 송당리 1375-2,,어린이보호,5,,송당초(로터리식당),30,,064-710-8855,33.47139556,126.7843504,2019-07-18
"제주특별자치도",제주특별자치도 제주시 구좌읍 송당리 1530-3,,어린이보호,5,,송당초 후문,30,,064-710-8855,33.47089886,126.7824682,2019-07-18
"제주특별자치도",제주특별자치도 제주시 구좌읍 중산간동로 2218-3,,어린이보호,8,,송당초등학교,30,,064-710-8855,33.4710621,126.7809333,2019-07-18
"제주특별자치도",제주특별자치도 서귀포시 표선면 445-10,,어린이보호,4,,표선초 정문,30,,064-710-8855,33.30729765,126.7797661,2019-07-18
"제주특별자치도",제주특별자치도 서귀포시 표선면 토산리 515,,어린이보호,2,,토산초 정문,30,,064-710-8855,33.31211382,126.7776653,2019-07-18
"제주특별자치도",제주특별자치도 서귀포시 표선면 토산리 515,,어린이보호,3,,토산초 후문,30,,064-710-8855,33.31211382,126.7776653,2019-07-18
"제주특별자치도",제주특별자치도 서귀포시 표선면 토산중앙로 68-9,,어린이보호,0,,토산초등학교,30,,064-710-8855,33.3125196,126.7774575,2019-07-18
"제주특별자치도",제주특별자치도 서귀포시 남원읍 신흥리 174-1,,어린이보호,5,,흥산초 정문,30,,064-710-8855,33.2999908,126.7653931,2019-07-18
"제주특별자치도",제주특별자치도 서귀포시 남원읍 일주동로 6642,,어린이보호,7,,흥산초등학교,30,,064-710-8855,33.3003592,126.7652996,2019-07-18
"제주특별자치도",제주특별자치도 서귀포시 남원읍 신흥리 604-1,,어린이보호,4,,흥산초 후문,30,,064-710-8855,33.30069266,126.7638039,2019-07-18
"제주특별자치도",제주특별자치도 서귀포시 남원읍 신흥리 2481,,어린이보호,4,,흥산초(신흥1리사무소옆),30,,064-710-8855,33.30746469,126.7632067,2019-07-18
"제주특별자치도",제주특별자치도 제주시 구좌읍 김녕리 1656,,어린이보호,4,,김녕초 정문,30,,064-710-8855,33.55527059,126.7508895,2019-07-18
"제주특별자치도",제주특별자치도 제주시 구좌읍 김녕로 117,,어린이보호,4,,김녕초등학교,30,,064-710-8855,33.5552575,126.7505618,2019-07-18
"제주특별자치도",제주특별자치도 서귀포시 남원읍 태흥리 970-3,,어린이보호,3,,태흥초 정문,30,,064-710-8855,33.28608448,126.7430027,2019-07-18
"제주특별자치도",제주특별자치도 서귀포시 남원읍 태흥리 970-3,,어린이보호,3,,태흥초 후문,30,,064-710-8855,33.28608448,126.7430027,2019-07-18
"제주특별자치도",제주특별자치도 서귀포시 남원읍 태위로 915,,어린이보호,6,,태흥초등학교,30,,064-710-8855,33.28639624,126.7429484,2019-07-18
"제주특별자치도",제주특별자치도 서귀포시 남원읍 남원리 156,,어린이보호,4,,남원유치원,30,,064-710-8855,33.28143296,126.7170736,2019-07-18
"제주특별자치도",제주특별자치도 서귀포시 남원읍 남원리 1344-1,,어린이보호,4,,남원초 정문,30,,064-710-8855,33.27837027,126.715978,2019-07-18
"제주특별자치도",제주특별자치도 서귀포시 남원읍 태위로 647,,어린이보호,4,,남원초등학교,30,,064-710-8855,33.2790508,126.7155650,2019-07-18
"제주특별자치도",제주특별자치도 서귀포시 남원읍 남원리 1305-3,,어린이보호,4,,남원초 후문,30,,064-710-8855,33.27917707,126.7151101,2019-07-18
"제주특별자치도",제주특별자치도 서귀포시 남원읍 의귀리 1483-3,,어린이보호,6,,의귀초 교차로,30,,064-710-8855,33.31060047,126.7142433,2019-07-18
"제주특별자치도",제주특별자치도 서귀포시 남원읍 의귀리 1483-3,,어린이보호,3,,의귀초 후문,30,,064-710-8855,33.31060047,126.7142433,2019-07-18
"제주특별자치도",제주특별자치도 서귀포시 남원읍 한신로 213,,어린이보호,10,,의귀초등학교,30,,064-710-8855,33.3108776,126.7145572,2019-07-18
"제주특별자치도",제주특별자치도 서귀포시 남원읍 의귀리 1482-8,,어린이보호,5,,의귀초 정문,30,,064-710-8855,33.30992525,126.713791,2019-07-18
"제주특별자치도",제주특별자치도 제주시 구좌읍 동복리 1367,,어린이보호,5,,동복분교 후문,30,,064-710-8855,33.55221891,126.7135515,2019-07-18
"제주특별자치도",제주특별자치도 서귀포시 남원읍 의귀리 1522-1,,어린이보호,4,,의귀어린이집,30,,064-710-8855,33.31212711,126.7131925,2019-07-18
"제주특별자치도",제주특별자치도 제주시 구좌읍 동복리 1406-1,,어린이보호,5,,동복분교 정문,30,,064-710-8855,33.55289664,126.7130135,2019-07-18
"제주특별자치도",제주특별자치도 서귀포시 남원읍 남원리 1284-1,,어린이보호,2,,남제주별어린이집,30,,064-710-8855,33.28006713,126.7121713,2019-07-18
"제주특별자치도",제주특별자치도 제주시 조천읍 선흘리 1111-2,,어린이보호,6,,선흘분교 교차로(동백상회),30,,064-710-8855,33.51169508,126.7051699,2019-07-18
"제주특별자치도",제주특별자치도 제주시 조천읍 선흘동1길 41,,어린이보호,5,,선흘분교,30,,064-710-8855,33.5150747,126.7048753,2019-07-18
"제주특별자치도",제주특별자치도 제주시 조천읍 선진길 7-18,,어린이보호,4,,선인분교,30,,064-710-8855,33.4595221,126.7041960,2019-07-18
"제주특별자치도",제주특별자치도 제주시 조천읍 선흘리 1946-1,,어린이보호,4,,선인분교 교차로,30,,064-710-8855,33.45887602,126.7031266,2019-07-18
"제주특별자치도",제주특별자치도 서귀포시 남원읍 남원리 612,,어린이보호,4,,의귀초(남서측 사가로),30,,064-710-8855,33.30526372,126.700780,2019-07-18
"제주특별자치도",제주특별자치도 제주시 조천읍 북촌리 1212,,어린이보호,4,,북촌초 정문,30,,064-710-8855,33.54764947,126.6918548,2019-07-18
"제주특별자치도",제주특별자치도 제주시 조천읍 일주동로 1481,,어린이보호,12,,북촌초등학교,30,,064-710-8855,33.54796999,126.6915455,2019-07-18
"제주특별자치도",제주특별자치도 제주시 조천읍 교래리 534-1,,어린이보호,6,,교래분교 교차로,30,,064-710-8855,33.43713395,126.6774127,2019-07-18
"제주특별자치도",제주특별자치도 제주시 조천읍 함덕리 4154-3,,어린이보호,4,,함덕1호어린이공원,30,,064-710-8855,33.5394155,126.6755857,2019-07-18
"제주특별자치도",제주특별자치도 제주시 조천읍 함덕리 272-74,,어린이보호,5,,샘물공원,30,,064-710-8855,33.54045176,126.675176,2019-07-18
"제주특별자치도",제주특별자치도 제주시 조천읍 함덕리 4150-6,,어린이보호,5,,칠돈가사거리,30,,064-710-8855,33.53882343,126.6742963,2019-07-18
"제주특별자치도",제주특별자치도 제주시 조천읍 함덕리 4145-1,,어린이보호,4,,함덕2호어린이공원,30,,064-710-8855,33.53923827,126.6737494,2019-07-18
"제주특별자치도",제주특별자치도 제주시 조천읍 함덕리 4147-16,,어린이보호,4,,함덕초 동쪽입구,30,,064-710-8855,33.53800941,126.6733625,2019-07-18
"제주특별자치도",제주특별자치도 제주시 조천읍 함덕리 72-34,,어린이보호,4,,함덕초 후문,30,,064-710-8855,33.5374527,126.6728212,2019-07-18
"제주특별자치도",제주특별자치도 제주시 조천읍 함덕리 287-2,,어린이보호,6,,함덕초 정문,30,,064-710-8855,33.53846019,126.6723242,2019-07-18
"제주특별자치도",제주특별자치도 제주시 조천읍 일주동로 1231,,어린이보호,12,,함덕초등학교,30,,064-710-8855,33.5389074,126.6722769,2019-07-18
"제주특별자치도",제주특별자치도 제주시 조천읍 함덕리 960-24,,어린이보호,5,,함덕초(서우봉해변입구),30,,064-710-8855,33.54072786,126.6695041,2019-07-18
"제주특별자치도",제주특별자치도 제주시 조천읍 함덕리 919,,어린이보호,5,,함덕공원,30,,064-710-8855,33.53812568,126.6676356,2019-07-18
"제주특별자치도",제주특별자치도 서귀포시 남원읍 위미리 2184-2,,어린이보호,3,,새싹어린이집 1,30,,064-710-8855,33.2878602,126.6651339,2019-07-18
"제주특별자치도",제주특별자치도 제주시 조천읍 대흘리 1651-4,,어린이보호,6,,대흘초 교차로,30,,064-710-8855,33.49881119,126.6587162,2019-07-18
"제주특별자치도",제주특별자치도 제주시 조천읍 함덕리 2943-3,,어린이보호,4,,함덕리소공원,30,,064-710-8855,33.54093493,126.658536,2019-07-18
"제주특별자치도",제주특별자치도 제주시 조천읍 중산간동로 677,,어린이보호,8,,대흘초등학교,30,,064-710-8855,33.49959907,126.6584350,2019-07-18
"제주특별자치도",제주특별자치도 서귀포시 남원읍 위미리 4606,,어린이보호,3,,새싹어린이집 2,30,,064-710-8855,33.29313943,126.6572716,2019-07-18
"제주특별자치도",제주특별자치도 제주시 조천읍 대흘리 2244-5,,어린이보호,4,,프랑스마을입구 삼거리,30,,064-710-8855,33.49910156,126.6562951,2019-07-18
"제주특별자치도",제주특별자치도 서귀포시 남원읍 위미리 3248-3,,어린이보호,5,,위미초(북동측),30,,064-710-8855,33.27487046,126.6542605,2019-07-18
"제주특별자치도",제주특별자치도 서귀포시 남원읍 위미리 3235,,어린이보호,4,,위미초 정문,30,,064-710-8855,33.27337312,126.6535952,2019-07-18
"제주특별자치도",제주특별자치도 서귀포시 남원읍 태위로 57,,어린이보호,10,,위미초등학교,30,,064-710-8855,33.2740723,126.6534699,2019-07-18
"제주특별자치도",제주특별자치도 제주시 조천읍 조천리 1142-1,,어린이보호,5,,만세공원,30,,064-710-8855,33.54060909,126.6422916,2019-07-18
"제주특별자치도",제주특별자치도 제주시 조천읍 조천리 2288,,어린이보호,3,,명지어린이집,30,,064-710-8855,33.533150,126.6401297,2019-07-18
"제주특별자치도",제주특별자치도 제주시 조천읍 조천리 2684-1,,어린이보호,5,,조천초 후문(조천비석거리),30,,064-710-8855,33.53958702,126.6370946,2019-07-18
"제주특별자치도",제주특별자치도 제주시 조천읍 조천리 2211-6,,어린이보호,6,,조천삼일어린이집,30,,064-710-8855,33.53467386,126.6354427,2019-07-18
"제주특별자치도",제주특별자치도 제주시 조천읍 신북로 195,,어린이보호,14,,조천초등학교,30,,064-710-8855,33.5355113,126.6335815,2019-07-18
"제주특별자치도",제주특별자치도 제주시 조천읍 조천리 3140,,어린이보호,6,,조천초 정문,30,,064-710-8855,33.53534739,126.6331734,2019-07-18
"제주특별자치도",제주특별자치도 제주시 조천읍 조천리 3095-10,,어린이보호,4,,조천초 후문,30,,064-710-8855,33.53570354,126.632917,2019-07-18
"제주특별자치도",제주특별자치도 서귀포시 남원읍 신례리 822,,어린이보호,3,,신례초 정문,30,,064-710-8855,33.28441825,126.6328842,2019-07-18
"제주특별자치도",제주특별자치도 서귀포시 남원읍 신례리 822,,어린이보호,4,,신례초 후문,30,,064-710-8855,33.28441825,126.6328842,2019-07-18
"제주특별자치도",제주특별자치도 서귀포시 남원읍 중산간동로 7116,,어린이보호,5,,신례초등학교,30,,064-710-8855,33.2846807,126.6321760,2019-07-18
"제주특별자치도",제주특별자치도 서귀포시 남원읍 하례리 326,,어린이보호,6,,하례초 정문,30,,064-710-8855,33.2644639,126.6309519,2019-07-18
"제주특별자치도",제주특별자치도 서귀포시 남원읍 일주동로 8002,,어린이보호,7,,하례초등학교,30,,064-710-8855,33.26476435,126.6309052,2019-07-18
"제주특별자치도",제주특별자치도 제주시 조천읍 신촌리 1828,,어린이보호,5,,신촌초 앞,30,,064-710-8855,33.53395845,126.6193486,2019-07-18
"제주특별자치도",제주특별자치도 제주시 조천읍 신북로 51,,어린이보호,15,,신촌초등학교,30,,064-710-8855,33.53445747,126.6192893,2019-07-18
"제주특별자치도",제주특별자치도 제주시 조천읍 신촌리 1859-1,,어린이보호,6,,신촌초 뒤,30,,064-710-8855,33.53462172,126.6186528,2019-07-18
"제주특별자치도",제주특별자치도 서귀포시 신효동 123-9,,어린이보호,4,,효돈초후문 삼거리,30,,064-710-8855,33.26508841,126.6162754,2019-07-18
"제주특별자치도",제주특별자치도 서귀포시 효돈로 161,,어린이보호,13,,효돈초등학교,30,,064-710-8855,33.2642292282,126.6154418426,2019-07-18
"제주특별자치도",제주특별자치도 서귀포시 신효동 123,,어린이보호,4,,효돈초 정문,30,,064-710-8855,33.26480119,126.6156803,2019-07-18
"제주특별자치도",제주특별자치도 서귀포시 신효동 123-17,,어린이보호,5,,스타펠리스 사거리,30,,064-710-8855,33.26466526,126.615220,2019-07-18
"제주특별자치도",제주특별자치도 서귀포시 보목동 711,,어린이보호,6,,보목어린이집,30,,064-710-8855,33.24089949,126.6019811,2019-07-18
"제주특별자치도",제주특별자치도 서귀포시 보목동 891,,어린이보호,2,,보목초 정문,30,,064-710-8855,33.24519591,126.6002941,2019-07-18
"제주특별자치도",제주특별자치도 서귀포시 보목동 891,,어린이보호,3,,보목초 후문,30,,064-710-8855,33.24519591,126.6002941,2019-07-18
"제주특별자치도",제주특별자치도 서귀포시 마소물로8번길 9,,어린이보호,15,,보목초등학교,30,,064-710-8855,33.2448428,126.5999512,2019-07-18
"제주특별자치도",제주특별자치도 서귀포시 상효동 897,,어린이보호,4,,한사랑어린이집,30,,064-710-8855,33.27173128,126.5968653,2019-07-18
"제주특별자치도",제주특별자치도 서귀포시 상효동 1290-14,,어린이보호,5,,온성학교 정문,30,,064-710-8855,33.29188894,126.5946219,2019-07-18
"제주특별자치도",제주특별자치도 제주시 번영로 484,,어린이보호,16,,봉개초등학교,30,,064-710-8855,33.4902658,126.5938129,2019-07-18
"제주특별자치도",제주특별자치도 제주시 봉개동 1930-2,,어린이보호,4,,봉개초 후문,30,,064-710-8855,33.49035116,126.5936762,2019-07-18
"제주특별자치도",제주특별자치도 서귀포시 516로 447-10,,어린이보호,6,,서귀포온성학교,30,,064-710-8855,33.29140793,126.5932814,2019-07-18
"제주특별자치도",제주특별자치도 제주시 봉개동 1930-1,,어린이보호,5,,봉개초 정문,30,,064-710-8855,33.49083996,126.5931168,2019-07-18
"제주특별자치도",제주특별자치도 제주시 봉개동 2609-5,,어린이보호,5,,61호공원,30,,064-710-8855,33.49270486,126.5911549,2019-07-18
"제주특별자치도",제주특별자치도 서귀포시 토평동 1338,,어린이보호,5,,토평초,30,,064-710-8855,33.26995303,126.5898683,2019-07-18
"제주특별자치도",제주특별자치도 서귀포시 토평남로 86,,어린이보호,12,,토평초등학교,30,,064-710-8855,33.2657932,126.5895149,2019-07-18
"제주특별자치도",제주특별자치도 서귀포시 토평동 1442-1,,어린이보호,2,,토평초 정문,30,,064-710-8855,33.27078092,126.5893654,2019-07-18
"제주특별자치도",제주특별자치도 서귀포시 토평동 1442-1,,어린이보호,4,,토평초 후문,30,,064-710-8855,33.27078092,126.5893654,2019-07-18
"제주특별자치도",제주특별자치도 제주시 지석14길 7,,어린이보호,12,,삼양초등학교,30,,064-710-8855,33.52078365,126.5862450,2019-07-18
"제주특별자치도",제주특별자치도 서귀포시 토평동 2319,,어린이보호,4,,무지개어린이집,30,,064-710-8855,33.26216712,126.5835637,2019-07-18
"제주특별자치도",제주특별자치도 제주시 월평동 416-3,,어린이보호,6,,제주엔젤유치원,30,,064-710-8855,33.47144988,126.5811552,2019-07-18
"제주특별자치도",제주특별자치도 서귀포시 토평동 3273-1,,어린이보호,5,,토평근린공원(토평공업단지),30,,064-710-8855,33.2925304,126.5811283,2019-07-18
"제주특별자치도",제주특별자치도 제주시 화삼북로2길 27,,어린이보호,7,,삼화초등학교,30,,064-710-8855,33.5150697,126.5769870,2019-07-18
"제주특별자치도",제주특별자치도 서귀포시 동홍동 100-3,,어린이보호,4,,동광공원,30,,064-710-8855,33.2575025,126.5766554,2019-07-18
"제주특별자치도",제주특별자치도 제주시 동화로1길 44,,어린이보호,16,,동화초등학교,30,,064-710-8855,33.5186195,126.5758192,2019-07-18
"제주특별자치도",제주특별자치도 서귀포시 동홍동 475-2,,어린이보호,5,,은현어린이집,30,,064-710-8855,33.25552413,126.5756932,2019-07-18
"제주특별자치도",제주특별자치도 서귀포시 동홍동 420-1,,어린이보호,4,,양지어린이공원,30,,064-710-8855,33.25633332,126.5756898,2019-07-18
"제주특별자치도",제주특별자치도 서귀포시 동홍동 199-3,,어린이보호,4,,동홍공원,30,,064-710-8855,33.25090417,126.5752939,2019-07-18
"제주특별자치도",제주특별자치도 서귀포시 동홍동 78-3,,어린이보호,5,,동화나라어린이집,30,,064-710-8855,33.25789338,126.5751814,2019-07-18
"제주특별자치도",제주특별자치도 제주시 월평동 748-1,,어린이보호,4,,106호 어린이공원,30,,064-710-8855,33.45114357,126.5747923,2019-07-18
"제주특별자치도",제주특별자치도 서귀포시 상효동 2268-1,,어린이보호,4,,온성학교(돈네코마을회관),30,,064-710-8855,33.30248041,126.5747676,2019-07-18
"제주특별자치도",제주특별자치도 제주시 월평동 746-2,,어린이보호,4,,첨단 제2근린공원,30,,064-710-8855,33.45269334,126.5743814,2019-07-18
"제주특별자치도",제주특별자치도 서귀포시 동홍동 288,,어린이보호,3,,예국어린이집,30,,064-710-8855,33.24665122,126.5735935,2019-07-18
"제주특별자치도",제주특별자치도 서귀포시 동홍동 82-2,,어린이보호,4,,태양공원,30,,064-710-8855,33.25785263,126.5732172,2019-07-18
"제주특별자치도",제주특별자치도 서귀포시 동홍동 435-4,,어린이보호,2,,여명공원,30,,064-710-8855,33.25586918,126.5732055,2019-07-18
"제주특별자치도",제주특별자치도 제주시 월평동 718-3,,어린이보호,4,,첨단 제5근린공원,30,,064-710-8855,33.45665452,126.5731867,2019-07-18
"제주특별자치도",제주특별자치도 서귀포시 동홍동 61-1,,어린이보호,5,,큐맥스스쿨 사거리,30,,064-710-8855,33.2590617,126.571921,2019-07-18
"제주특별자치도",제주특별자치도 서귀포시 동홍동 650-6,,어린이보호,4,,예원유치원,30,,064-710-8855,33.25282145,126.5717063,2019-07-18
"제주특별자치도",제주특별자치도 서귀포시 동홍동 87-4,,어린이보호,4,,희망공원,30,,064-710-8855,33.25786233,126.5710609,2019-07-18
"제주특별자치도",제주특별자치도 서귀포시 동홍동 618-19,,어린이보호,3,,동홍초 정문 동측,30,,064-710-8855,33.25941538,126.570913,2019-07-18
"제주특별자치도",제주특별자치도 서귀포시 동홍동 60-7,,어린이보호,5,,동홍초,30,,064-710-8855,33.25891759,126.5706173,2019-07-18
"제주특별자치도",제주특별자치도 서귀포시 동홍동 646-1,,어린이보호,4,,문부공원1,30,,064-710-8855,33.25386278,126.5703727,2019-07-18
"제주특별자치도",제주특별자치도 서귀포시 동홍동 646-1,,어린이보호,4,,문부공원2,30,,064-710-8855,33.25386278,126.5703727,2019-07-18
"제주특별자치도",제주특별자치도 제주시 영평동 2180,,어린이보호,6,,첨단 제1근린공원,30,,064-710-8855,33.45153843,126.5700946,2019-07-18
"제주특별자치도",제주특별자치도 서귀포시 동홍동 1079-1,,어린이보호,4,,해달별어린이집,30,,064-710-8855,33.26656591,126.5697172,2019-07-18
"제주특별자치도",제주특별자치도 서귀포시 동홍동 588-14,,어린이보호,3,,동홍초 정문 서측,30,,064-710-8855,33.25933206,126.5696281,2019-07-18
"제주특별자치도",제주특별자치도 서귀포시 동홍북로 17,,어린이보호,17,,동홍초등학교,30,,064-710-8855,33.2602711,126.5698182,2019-07-18
"제주특별자치도",제주특별자치도 서귀포시 서귀동 252-1,,어린이보호,4,,태평공원,30,,064-710-8855,33.24943314,126.5693145,2019-07-18
"제주특별자치도",제주특별자치도 서귀포시 동홍동 1005-2,,어린이보호,1,,동홍초 후문,30,,064-710-8855,33.26978726,126.5693061,2019-07-18
"제주특별자치도",제주특별자치도 서귀포시 서귀동 70-1,,어린이보호,5,,자구리문화예술공원,30,,064-710-8855,33.24344735,126.5691509,2019-07-18
"제주특별자치도",제주특별자치도 제주시 영평동 2186-2,,어린이보호,4,,첨단 제3근린공원,30,,064-710-8855,33.44923576,126.5690654,2019-07-18
"제주특별자치도",제주특별자치도 서귀포시 서귀동 70-4,,어린이보호,7,,자구리공원,30,,064-710-8855,33.24381854,126.5690511,2019-07-18
"제주특별자치도",제주특별자치도 서귀포시 서귀동 66-11,,어린이보호,5,,정훈수산 사거리,30,,064-710-8855,33.24383631,126.5676989,2019-07-18
"제주특별자치도",제주특별자치도 제주시 영평동 1830-13,,어린이보호,4,,영평초 앞,30,,064-710-8855,33.47767187,126.5674931,2019-07-18
"제주특별자치도",제주특별자치도 제주시 아봉로 225,,어린이보호,12,,영평초등학교,30,,064-710-8855,33.4788135,126.5673239,2019-07-18
"제주특별자치도",제주특별자치도 서귀포시 서귀동 52-4,,어린이보호,4,,서귀포초 후문,30,,064-710-8855,33.24357549,126.5669984,2019-07-18
"제주특별자치도",제주특별자치도 서귀포시 서귀동 56-5,,어린이보호,2,,서귀포초 후문일대,30,,064-710-8855,33.24457493,126.5667818,2019-07-18
"제주특별자치도",제주특별자치도 서귀포시 서귀동 166-1,,어린이보호,4,,제석공원(1),30,,064-710-8855,33.24609658,126.5666813,2019-07-18
"제주특별자치도",제주특별자치도 서귀포시 서귀동 166-1,,어린이보호,4,,제석공원(2),30,,064-710-8855,33.24609658,126.5666813,2019-07-18
"제주특별자치도",제주특별자치도 서귀포시 동홍동 531,,어린이보호,5,,에벤에셀어린이집,30,,064-710-8855,33.25742383,126.5662982,2019-07-18
"제주특별자치도",제주특별자치도 서귀포시 서귀동 339,,어린이보호,4,,서귀중앙초 정문,30,,064-710-8855,33.25124011,126.5661094,2019-07-18
"제주특별자치도",제주특별자치도 서귀포시 서귀동 968-4,,어린이보호,4,,서귀포초 정문,30,,064-710-8855,33.24347375,126.5660488,2019-07-18
"제주특별자치도",제주특별자치도 서귀포시 서귀동 962,,어린이보호,5,,정모시공원(서귀포중 동남측),30,,064-710-8855,33.24514346,126.5654901,2019-07-18
"제주특별자치도",제주특별자치도 서귀포시 서귀동 263-23,,어린이보호,4,,서귀중앙초 부부약국 건너편,30,,064-710-8855,33.25356879,126.5654625,2019-07-18
"제주특별자치도",제주특별자치도 서귀포시 솔동산로11번길 17,,어린이보호,8,,서귀포초등학교,30,,064-710-8855,33.24441109,126.5661320,2019-07-18
"제주특별자치도",제주특별자치도 서귀포시 서귀동 556-3,,어린이보호,4,,서귀포초,30,,064-710-8855,33.24491649,126.5653351,2019-07-18
"제주특별자치도",제주특별자치도 서귀포시 서귀동 267-6,,어린이보호,5,,명가 삼거리,30,,064-710-8855,33.2513317,126.5649845,2019-07-18
"제주특별자치도",제주특별자치도 제주시 영평동 2352-1,,어린이보호,3,,무궁화어린이집,30,,064-710-8855,33.47472167,126.5648335,2019-07-18
"제주특별자치도",제주특별자치도 서귀포시 서귀동 282-6,,어린이보호,2,,서귀중앙초 후문2,30,,064-710-8855,33.252234,126.564577,2019-07-18
"제주특별자치도",제주특별자치도 서귀포시 서귀동 961,,어린이보호,4,,해성유치원(이중섭미술관서측 삼가로),30,,064-710-8855,33.2478173,126.5641582,2019-07-18
"제주특별자치도",제주특별자치도 서귀포시 서귀동 283-21,,어린이보호,2,,서귀중앙초 후문1,30,,064-710-8855,33.25360838,126.5641304,2019-07-18
"제주특별자치도",제주특별자치도 서귀포시 동홍동 1514-6,,어린이보호,4,,장수공원(서귀고 동측테니스장),30,,064-710-8855,33.25706633,126.5639489,2019-07-18
"제주특별자치도",제주특별자치도 서귀포시 동문동로 54,,어린이보호,13,,서귀중앙초등학교,30,,064-710-8855,33.2531180,126.5638182,2019-07-18
"제주특별자치도",제주특별자치도 서귀포시 중앙로 62번길 18,,어린이보호,4,,중앙공원,30,,064-710-8855,33.25014849,126.5636786,2019-07-18
"제주특별자치도",제주특별자치도 서귀포시 동홍동 1685,,어린이보호,4,,동홍동공원(1),30,,064-710-8855,33.26558928,126.5628434,2019-07-18
"제주특별자치도",제주특별자치도 서귀포시 동홍동 1685,,어린이보호,4,,동홍동공원(2),30,,064-710-8855,33.26558928,126.5628434,2019-07-18
"제주특별자치도",제주특별자치도 서귀포시 태평로 398,,어린이보호,4,,해성유치원,30,,064-710-8855,33.2441813,126.5630395,2019-07-18
"제주특별자치도",제주특별자치도 서귀포시 동홍동 1473-7,,어린이보호,4,,장수1공원(서귀포의료원 서측),30,,064-710-8855,33.25615498,126.5625827,2019-07-18
"제주특별자치도",제주특별자치도 서귀포시 동홍동 1383-2,,어린이보호,4,,굴왓공원(학생문화원 북측),30,,064-710-8855,33.26027625,126.5622171,2019-07-18
"제주특별자치도",제주특별자치도 제주시 일주동로 157,,어린이보호,16,,화북초등학교,30,,064-710-8855,33.5188390,126.5618875,2019-07-18
"제주특별자치도",제주특별자치도 제주시 거로남4길 11-6,,어린이보호,5,,요요어린이집,30,,064-710-8855,33.50851574,126.5616890,2019-07-18
"제주특별자치도",제주특별자치도 서귀포시 동홍동 1674,,어린이보호,3,,또또어린이집,30,,064-710-8855,33.2656107,126.5611477,2019-07-18
"제주특별자치도",제주특별자치도 서귀포시 서귀동 311-21,,어린이보호,5,,서귀어린이집,30,,064-710-8855,33.24819814,126.5608974,2019-07-18
"제주특별자치도",제주특별자치도 서귀포시 중앙로 175,,어린이보호,5,,서귀북초등학교,30,,064-710-8855,33.2599073,126.5586117,2019-07-18
"제주특별자치도",제주특별자치도 서귀포시 서홍동 374-2,,어린이보호,4,,우리한식당 삼거리,30,,064-710-8855,33.2546035,126.5585549,2019-07-18
"제주특별자치도",제주특별자치도 서귀포시 서홍동 307-5,,어린이보호,4,,서귀북초 정문,30,,064-710-8855,33.26073727,126.5585491,2019-07-18
"제주특별자치도",제주특별자치도 서귀포시 서문서로 43,,어린이보호,3,,천지공원,30,,064-710-8855,33.25118285,126.5585131,2019-07-18
"제주특별자치도",제주특별자치도 서귀포시 서홍동 378-23,,어린이보호,5,,단골마트 사거리,30,,064-710-8855,33.25609879,126.5580531,2019-07-18
"제주특별자치도",제주특별자치도 서귀포시 서홍동 306,,어린이보호,3,,서귀북초 후문,30,,064-710-8855,33.26049291,126.558037,2019-07-18
"제주특별자치도",제주특별자치도 서귀포시 서홍동 443-5,,어린이보호,5,,서귀서초,30,,064-710-8855,33.25344168,126.5577778,2019-07-18
"제주특별자치도",제주특별자치도 서귀포시 서홍동 211-2,,어린이보호,3,,명성어린이집,30,,064-710-8855,33.26527017,126.5576743,2019-07-18
"제주특별자치도",제주특별자치도 서귀포시 솜반천로 38,,어린이보호,13,,서귀서초등학교,30,,064-710-8855,33.2547073,126.5566345,2019-07-18
"제주특별자치도",제주특별자치도 서귀포시 서홍동 436-4,,어린이보호,4,,서귀서초 서쪽삼거리,30,,064-710-8855,33.25405066,126.5559358,2019-07-18
"제주특별자치도",제주특별자치도 서귀포시 서홍동 454-3,,어린이보호,4,,걸매생태공원(1),30,,064-710-8855,33.25013355,126.5557015,2019-07-18
"제주특별자치도",제주특별자치도 서귀포시 서홍동 454-3,,어린이보호,4,,걸매생태공원(2),30,,064-710-8855,33.25013355,126.5557015,2019-07-18
"제주특별자치도",제주특별자치도 서귀포시 서홍동 454-3,,어린이보호,4,,걸매생태공원(3),30,,064-710-8855,33.25013355,126.5557015,2019-07-18
"제주특별자치도",제주특별자치도 서귀포시 서홍동 578-1,,어린이보호,3,,칠십리공원3(올레길-도서관방향),30,,064-710-8855,33.24563028,126.554111,2019-07-18
"제주특별자치도",제주특별자치도 서귀포시 서홍동 1255-1,,어린이보호,5,,한울어린이집,30,,064-710-8855,33.25523968,126.5534892,2019-07-18
"제주특별자치도",제주특별자치도 서귀포시 서홍동 576-1,,어린이보호,5,,칠십리공원2(삼매봉도서관입구 삼가로),30,,064-710-8855,33.24593258,126.5533256,2019-07-18
"제주특별자치도",제주특별자치도 서귀포시 서홍동 571,,어린이보호,4,,칠십리공원1(공원내운동기구방향),30,,064-710-8855,33.2473383,126.5531652,2019-07-18
"제주특별자치도",제주특별자치도 제주시 일주동로 61,,어린이보호,14,,제주교대부속초등학교,30,,064-710-8855,33.5145691,126.5516729,2019-07-18
"제주특별자치도",제주특별자치도 서귀포시 서홍동 2565,,어린이보호,4,,아이뜨락생태공원,30,,064-710-8855,33.2700066,126.5484088,2019-07-18
"제주특별자치도",제주특별자치도 서귀포시 서홍동 1132-9,,어린이보호,5,,토담어린이집,30,,064-710-8855,33.25361757,126.5481535,2019-07-18
"제주특별자치도",제주특별자치도 제주시 건입동 602-19,,어린이보호,5,,사라봉공원5(우당도서관정류장앞),30,,064-710-8855,33.51248027,126.5477349,2019-07-18
"제주특별자치도",제주특별자치도 제주시 건입동 110,,어린이보호,5,,제주동초 후문,30,,064-710-8855,33.5080403,126.5472875,2019-07-18
"제주특별자치도",제주특별자치도 제주시 태성로 6,,어린이보호,11,,동광초등학교,30,,064-710-8855,33.50173455,126.5472187,2019-07-18
"제주특별자치도",제주특별자치도 서귀포시 서홍동 782-1,,어린이보호,4,,삼매봉공원(1),30,,064-710-8855,33.24106092,126.5470002,2019-07-18
"제주특별자치도",제주특별자치도 서귀포시 서홍동 782-1,,어린이보호,4,,삼매봉공원(2),30,,064-710-8855,33.24106092,126.5470002,2019-07-18
"제주특별자치도",제주특별자치도 제주시 건입동 387-4,,어린이보호,4,,사라봉공원3(모충사 주차장),30,,064-710-8855,33.51660268,126.546528,2019-07-18
"제주특별자치도",제주특별자치도 제주시 건입동 387-1,,어린이보호,5,,사라봉공원4(배드민턴장 자전거거치대앞),30,,064-710-8855,33.51770465,126.5458093,2019-07-18
"제주특별자치도",제주특별자치도 제주시 건입동 1427-13,,어린이보호,4,,사라봉공원2(충혼각입구. 주차장앞),30,,064-710-8855,33.51592463,126.5456729,2019-07-18
"제주특별자치도",제주특별자치도 제주시 건입동 345-4,,어린이보호,4,,사라봉공원1(등대입구. 사라사앞),30,,064-710-8855,33.52074004,126.5453418,2019-07-18
"제주특별자치도",제주특별자치도 제주시 중앙로 518,,어린이보호,12,,아라초등학교,30,,064-710-8855,33.4767254,126.5437955,2019-07-18
"제주특별자치도",제주특별자치도 서귀포시 서홍동 1780-1,,어린이보호,7,,샘터어린이집,30,,064-710-8855,33.26294152,126.5429818,2019-07-18
"제주특별자치도",제주특별자치도 제주시 간월동로3길 15,,어린이보호,12,,제주영지학교,30,,064-710-8855,33.4882462,126.5427772,2019-07-18
"제주특별자치도",제주특별자치도 제주시 남광로 28,,어린이보호,12,,남광초등학교,30,,064-710-8855,33.4932513,126.5398322,2019-07-18
"제주특별자치도",제주특별자치도 제주시 건입동 711,,어린이보호,4,,사라봉공원6(사라봉입구),30,,064-710-8855,33.51603775,126.5400403,2019-07-18
"제주특별자치도",제주특별자치도 제주시 건입동 671,,어린이보호,5,,어린이공원 제1-12호,30,,064-710-8855,33.51632218,126.539906,2019-07-18
"제주특별자치도",제주특별자치도 제주시 건입동 674-35,,어린이보호,7,,사라봉공원8(사라봉게스트하우스앞),30,,064-710-8855,33.51493461,126.5388079,2019-07-18
"제주특별자치도",제주특별자치도 제주시 신산로15길 35,,어린이보호,17,,인화초등학교,30,,064-710-8855,33.5070297,126.5381210,2019-07-18
"제주특별자치도",제주특별자치도 제주시 건입동 1095,,어린이보호,4,,목성빌라입구 삼거리,30,,064-710-8855,33.51428989,126.5351634,2019-07-18
"제주특별자치도",제주특별자치도 제주시 동문로 65,,어린이보호,13,,제주동초등학교,30,,064-710-8855,33.5141041,126.5335300,2019-07-18
"제주특별자치도",제주특별자치도 제주시 건입동 1107-10,,어린이보호,4,,제일주택삼거리,30,,064-710-8855,33.51396571,126.5324971,2019-07-18
"제주특별자치도",제주특별자치도 제주시 구남동2길 58,,어린이보호,15,,이도초등학교,30,,064-710-8855,33.4879001097,126.5321333223,2019-07-18
"제주특별자치도",제주특별자치도 서귀포시 호근동 2142,,어린이보호,5,,서호초(초등학교 서측),30,,064-710-8855,33.25704824,126.5320007,2019-07-18
"제주특별자치도",제주특별자치도 제주시 도남동 80-1,,어린이보호,4,,도남공원,30,,064-710-8855,33.49240927,126.5319683,2019-07-18
"제주특별자치도",제주특별자치도 제주시 건입동 1273,,어린이보호,6,,제주동초(건입동주민센터북서측),30,,064-710-8855,33.51471558,126.5318441,2019-07-18
"제주특별자치도",제주특별자치도 제주시 돈내길 5,,어린이보호,16,,광양초등학교,30,,064-710-8855,33.5028548,126.5300705,2019-07-18
"제주특별자치도",제주특별자치도 제주시 도남동 67-20,,어린이보호,4,,어린이공원 제1-38호,30,,064-710-8855,33.49053226,126.529954,2019-07-18
"제주특별자치도",제주특별자치도 제주시 건입동 1148-1,,어린이보호,4,,금산생태공원(김만덕기념관옆),30,,064-710-8855,33.51554727,126.5297926,2019-07-18
"제주특별자치도",제주특별자치도 제주시 삼성로9길 27,,어린이보호,15,,일도초등학교,30,,064-710-8855,33.5092991,126.5295310,2019-07-18
"제주특별자치도",제주특별자치도 제주시 도남동 88-11,,어린이보호,3,,어린이공원 제1-35호,30,,064-710-8855,33.49456891,126.5292726,2019-07-18
"제주특별자치도",제주특별자치도 제주시 도남동 83-63,,어린이보호,4,,제1호 행복놀이터,30,,064-710-8855,33.49341461,126.5290203,2019-07-18
"제주특별자치도",제주특별자치도 서귀포시 호근남로 40,,어린이보호,8,,서호초등학교,30,,064-710-8855,33.2537959,126.5287180,2019-07-18
"제주특별자치도",제주특별자치도 제주시 도남동 55-4,,어린이보호,4,,어린이공원 제1-36호,30,,064-710-8855,33.49358354,126.5272947,2019-07-18
"제주특별자치도",제주특별자치도 제주시 건입동 1445,,어린이보호,4,,탑동제2근린공원(서부두진입로),30,,064-710-8855,33.51747015,126.5264608,2019-07-18
"제주특별자치도",제주특별자치도 제주시 도남동755-2,,어린이보호,4,,어린이공원 제1-98호,30,,064-710-8855,33.48859446,126.5261725,2019-07-18
"제주특별자치도",제주특별자치도 제주시 도남동 749,,어린이보호,4,,시민복지타운근린공원(1),30,,064-710-8855,33.48941179,126.5260711,2019-07-18
"제주특별자치도",제주특별자치도 제주시 도남동 749,,어린이보호,4,,시민복지타운근린공원(2),30,,064-710-8855,33.48941179,126.5260711,2019-07-18
"제주특별자치도",제주특별자치도 제주시 도남동 914-13,,어린이보호,4,,어린이공원 제1-4호,30,,064-710-8855,33.49938967,126.5257757,2019-07-18
"제주특별자치도",제주특별자치도 제주시 도남로8길 22,,어린이보호,8,,도남초등학교,30,,064-710-8855,33.4936906,126.5259115,2019-07-18
"제주특별자치도",제주특별자치도 제주시 서광로29길 35,,어린이보호,14,,삼성초등학교,30,,064-710-8855,33.50346106,126.5252775,2019-07-18
"제주특별자치도",제주특별자치도 서귀포시 서호동 352,,어린이보호,5,,서호어린이집,30,,064-710-8855,33.25692949,126.5236678,2019-07-18
"제주특별자치도",제주특별자치도 제주시 도남동 46,,어린이보호,4,,37호 어린이공원(1),30,,064-710-8855,33.49554573,126.5232884,2019-07-18
"제주특별자치도",제주특별자치도 제주시 도남동 46,,어린이보호,5,,37호 어린이공원(2),30,,064-710-8855,33.49554573,126.5232884,2019-07-18
"제주특별자치도",제주특별자치도 서귀포시 법환동 1,,어린이보호,5,,혁신 제3호 어린이공원,30,,064-710-8855,33.24727985,126.5225845,2019-07-18
"제주특별자치도",제주특별자치도 제주시 중앙로8길 18,,어린이보호,19,,제주북초등학교,30,,064-710-8855,33.5149598,126.5217042,2019-07-18
"제주특별자치도",제주특별자치도 제주시 도남동731-6,,어린이보호,4,,어린이공원 제1-97호,30,,064-710-8855,33.48858344,126.5218979,2019-07-18
"제주특별자치도",제주특별자치도 제주시 남성로 149,,어린이보호,13,,제주남초등학교,30,,064-710-8855,33.5102075,126.5211748,2019-07-18
"제주특별자치도",제주특별자치도 서귀포시 서호동 681,,어린이보호,6,,예사랑어린이집,30,,064-710-8855,33.25820613,126.5206149,2019-07-18
"제주특별자치도",제주특별자치도 제주시 서사로18길 40,,어린이보호,4,,제주중앙초등학교,30,,064-710-8855,33.5023738,126.5158853,2019-07-18
"제주특별자치도",제주특별자치도 서귀포시 법환동 328-6,,어린이보호,4,,법환하로10 사거리,30,,064-710-8855,33.23824032,126.5141432,2019-07-18
"제주특별자치도",제주특별자치도 제주시 연사길 48,,어린이보호,14,,오라초등학교,30,,064-710-8855,33.4893528,126.5135832,2019-07-18
"제주특별자치도",제주특별자치도 서귀포시 법환동 4,,어린이보호,5,,혁신 제4호어린이공원,30,,064-710-8855,33.21757257,126.5138053,2019-07-18
"제주특별자치도",제주특별자치도 서귀포시 신서귀로76번길 6-3,,어린이보호,13,,새서귀초등학교,30,,064-710-8855,33.2566214,126.5134709,2019-07-18
"제주특별자치도",제주특별자치도 서귀포시 서호동 1150,,어린이보호,4,,미래1공원,30,,064-710-8855,33.25915528,126.5128565,2019-07-18
"제주특별자치도",제주특별자치도 제주시 남성로11길 22,,어린이보호,11,,한천초등학교,30,,064-710-8855,33.5073465,126.5130754,2019-07-18
"제주특별자치도",제주특별자치도 서귀포시 서호동 1473-4,,어린이보호,3,,신학공원,30,,064-710-8855,33.25164523,126.5119866,2019-07-18
"제주특별자치도",제주특별자치도 서귀포시 서호동 1453,,어린이보호,4,,미래2공원,30,,064-710-8855,33.25726824,126.5116387,2019-07-18
"제주특별자치도",제주특별자치도 서귀포시 법환동 731-2,,어린이보호,4,,시민공원(1),30,,064-710-8855,33.25643712,126.510139,2019-07-18
"제주특별자치도",제주특별자치도 서귀포시 법환동 731-2,,어린이보호,4,,시민공원(2),30,,064-710-8855,33.25643712,126.510139,2019-07-18
"제주특별자치도",제주특별자치도 제주시 성화로6길 51,,어린이보호,16,,제주서초등학교,30,,064-710-8855,33.5120829,126.5103468,2019-07-18
"제주특별자치도",제주특별자치도 서귀포시 서호동 1421-5,,어린이보호,3,,새서귀초 정문,30,,064-710-8855,33.2640661,126.5094948,2019-07-18
"제주특별자치도",제주특별자치도 서귀포시 서호동 1421-5,,어린이보호,3,,새서귀초 후문,30,,064-710-8855,33.2640661,126.5094948,2019-07-18
"제주특별자치도",제주특별자치도 서귀포시 서호동 1421-5,,어린이보호,3,,서호초 정문,30,,064-710-8855,33.2640661,126.5094948,2019-07-18
"제주특별자치도",제주특별자치도 서귀포시 서호동 1421-5,,어린이보호,3,,서호초 후문,30,,064-710-8855,33.2640661,126.5094948,2019-07-18
"제주특별자치도",제주특별자치도 서귀포시 강정동 445-4,,어린이보호,4,,법환어린이집,30,,064-710-8855,33.2390848,126.5089185,2019-07-18
"제주특별자치도",제주특별자치도 서귀포시 강정동 123,,어린이보호,6,,문화1공원,30,,064-710-8855,33.2597358,126.5088554,2019-07-18
"제주특별자치도",제주특별자치도 서귀포시 법환동 1244-3,,어린이보호,4,,법환초,30,,064-710-8855,33.2370242,126.5086976,2019-07-18
"제주특별자치도",제주특별자치도 서귀포시 이어도로 879,,어린이보호,10,,법환초등학교,30,,064-710-8855,33.2375178,126.5089877,2019-07-18
"제주특별자치도",제주특별자치도 서귀포시 강정동 108-10,,어린이보호,6,,예일어린이집,30,,064-710-8855,33.26136618,126.5083957,2019-07-18
"제주특별자치도",제주특별자치도 서귀포시 강정동 138,,어린이보호,4,,문화2공원,30,,064-710-8855,33.25770898,126.5082627,2019-07-18
"제주특별자치도",제주특별자치도 서귀포시 강정동 176,,어린이보호,5,,문화공원(1),30,,064-710-8855,33.25071268,126.5080293,2019-07-18
"제주특별자치도",제주특별자치도 서귀포시 강정동 176,,어린이보호,5,,문화공원(2),30,,064-710-8855,33.25071268,126.5080293,2019-07-18
"제주특별자치도",제주특별자치도 서귀포시 강정동 169-8,,어린이보호,4,,대청공원,30,,064-710-8855,33.25331453,126.5053463,2019-07-18
"제주특별자치도",제주특별자치도 서귀포시 강정동 201,,어린이보호,4,,강정 제2호 어린이공원,30,,064-710-8855,33.25369789,126.5043125,2019-07-18
"제주특별자치도",제주특별자치도 서귀포시 강정동 201,,어린이보호,4,,강정 제1호 공원(1),30,,064-710-8855,33.25369789,126.5043125,2019-07-18
"제주특별자치도",제주특별자치도 서귀포시 강정동 201,,어린이보호,4,,강정 제1호 공원(2),30,,064-710-8855,33.25369789,126.5043125,2019-07-18
"제주특별자치도",제주특별자치도 서귀포시 강정동 207,,어린이보호,5,,강정 제1호 어린이공원,30,,064-710-8855,33.25320175,126.5030135,2019-07-18
"제주특별자치도",제주특별자치도 서귀포시 강정동 1480,,어린이보호,4,,강창학공원,30,,064-710-8855,33.26144349,126.4998363,2019-07-18
"제주특별자치도",제주특별자치도 서귀포시 강정동 798,,어린이보호,4,,서건도공원,30,,064-710-8855,33.23279435,126.4996752,2019-07-18
"제주특별자치도",제주특별자치도 제주시 연동 311-33,,어린이보호,2,,어린이공원 제1-5호,30,,064-710-8855,33.49152379,126.4989612,2019-07-18
"제주특별자치도",제주특별자치도 제주시 연동 450-7,,어린이보호,5,,신제주초 정문좌측삼거리,30,,064-710-8855,33.48220166,126.4982103,2019-07-18
"제주특별자치도",제주특별자치도 제주시 연동 316,,어린이보호,5,,신제주초,30,,064-710-8855,33.48289316,126.4978467,2019-07-18
"제주특별자치도",제주특별자치도 제주시 비월길 29,,어린이보호,17,,신제주초등학교,30,,064-710-8855,33.4832705,126.4978089,2019-07-18
"제주특별자치도",제주특별자치도 제주시 연동 301-15,,어린이보호,7,,삼다공원(도교육청쪽),30,,064-710-8855,33.49035043,126.4971782,2019-07-18
"제주특별자치도",제주특별자치도 제주시 연동 308-2,,어린이보호,5,,신제주초 정문우측삼거리,30,,064-710-8855,33.48348908,126.4969798,2019-07-18
"제주특별자치도",제주특별자치도 제주시 연동 419-2,,어린이보호,4,,신제주초(신제주초남측.연북로),30,,064-710-8855,33.48175253,126.4963806,2019-07-18
"제주특별자치도",제주특별자치도 제주시 연동 301-9,,어린이보호,5,,삼다공원,30,,064-710-8855,33.4903775,126.4962161,2019-07-18
"제주특별자치도",제주특별자치도 제주시 연동 293-6,,어린이보호,4,,어린이공원 제1-6호,30,,064-710-8855,33.48704493,126.4943427,2019-07-18
"제주특별자치도",제주특별자치도 제주시 연동 297,,어린이보호,7,,제주관광대학부속어린이집,30,,064-710-8855,33.48309445,126.4941632,2019-07-18
"제주특별자치도",제주특별자치도 제주시 연동 297-1,,어린이보호,5,,어린이공원 제1-7호,30,,064-710-8855,33.48309445,126.4941632,2019-07-18
"제주특별자치도",제주특별자치도 제주시 연동 1424-3,,어린이보호,4,,해봉유치원,30,,064-710-8855,33.47722442,126.4937133,2019-07-18
"제주특별자치도",제주특별자치도 제주시 연동 1413,,어린이보호,4,,연동어린이집,30,,064-710-8855,33.47709705,126.4918992,2019-07-18
"제주특별자치도",제주특별자치도 제주시 연동 1504-1,,어린이보호,5,,한라유치원,30,,064-710-8855,33.47987829,126.4917668,2019-07-18
"제주특별자치도",제주특별자치도 제주시 연동 270-5,,어린이보호,5,,삼무공원(1),30,,064-710-8855,33.49165347,126.491545,2019-07-18
"제주특별자치도",제주특별자치도 제주시 연동 270-5,,어린이보호,4,,삼무공원(2),30,,064-710-8855,33.49165347,126.491545,2019-07-18
"제주특별자치도",제주특별자치도 제주시 연동 270-5,,어린이보호,4,,삼무공원(3),30,,064-710-8855,33.49165347,126.491545,2019-07-18
"제주특별자치도",제주특별자치도 제주시 연동 270-5,,어린이보호,4,,삼무공원(4),30,,064-710-8855,33.49165347,126.491545,2019-07-18
"제주특별자치도",제주특별자치도 제주시 연동 270-5,,어린이보호,5,,삼무공원(5),30,,064-710-8855,33.49165347,126.491545,2019-07-18
"제주특별자치도",제주특별자치도 제주시 연동 1504-2,,어린이보호,4,,어린이공원 제1-68호,30,,064-710-8855,33.47966821,126.4914916,2019-07-18
"제주특별자치도",제주특별자치도 제주시 연동998,,어린이보호,4,,남조봉공원(1),30,,064-710-8855,33.46992681,126.4911138,2019-07-18
"제주특별자치도",제주특별자치도 제주시 연동998,,어린이보호,4,,남조봉공원(2),30,,064-710-8855,33.46992681,126.4911138,2019-07-18
"제주특별자치도",제주특별자치도 제주시 연동 1519,,어린이보호,5,,제주충신유치원,30,,064-710-8855,33.47776567,126.4897659,2019-07-18
"제주특별자치도",제주특별자치도 제주시 연동 1519-1,,어린이보호,5,,어린이공원 제1-67호,30,,064-710-8855,33.47776567,126.4897659,2019-07-18
"제주특별자치도",제주특별자치도 제주시 연동 262,,어린이보호,3,,연동유치원(제원마트남측사거리.식객출입구남측),30,,064-710-8855,33.48660677,126.4889601,2019-07-18
"제주특별자치도",제주특별자치도 제주시 연동 262,,어린이보호,2,,연동유치원(제원마트남측사거리.식객출입구북측),30,,064-710-8855,33.48660677,126.4889601,2019-07-18
"제주특별자치도",제주특별자치도 제주시 연동 262-45,,어린이보호,5,,연동유치원,30,,064-710-8855,33.48730295,126.4889447,2019-07-18
"제주특별자치도",제주특별자치도 제주시 연동 266-2,,어린이보호,4,,어린이공원 제1-9호,30,,064-710-8855,33.48315583,126.4888818,2019-07-18
"제주특별자치도",제주특별자치도 제주시 연동 2330-1,,어린이보호,4,,어린이공원 제1-44호,30,,064-710-8855,33.49266958,126.4888763,2019-07-18
"제주특별자치도",제주특별자치도 제주시 연동 1369,,어린이보호,4,,연동공원,30,,064-710-8855,33.4823339,126.4884065,2019-07-18
"제주특별자치도",제주특별자치도 제주시 연동 2319-1,,어린이보호,4,,어린이공원 제1-45호,30,,064-710-8855,33.49184251,126.4866591,2019-07-18
"제주특별자치도",제주특별자치도 제주시 노형동 732-2,,어린이보호,4,,어린이공원 제1-66호,30,,064-710-8855,33.47921447,126.4866233,2019-07-18
"제주특별자치도",제주특별자치도 제주시 연화로 42,,어린이보호,17,,한라초등학교,30,,064-710-8855,33.4776708,126.4865124,2019-07-18
"제주특별자치도",제주특별자치도 제주시 연동 252-23,,어린이보호,4,,어린이공원 제1-8호,30,,064-710-8855,33.4873801,126.4863077,2019-07-18
"제주특별자치도",제주특별자치도 제주시 노형동 80,,어린이보호,4,,도토리소풍 넥슨어린이집,30,,064-710-8855,33.47336773,126.4861113,2019-07-18
"제주특별자치도",제주특별자치도 제주시 노형동 60,,어린이보호,4,,로뎀나무어린이집,30,,064-710-8855,33.47547856,126.4855453,2019-07-18
"제주특별자치도",제주특별자치도 제주시 노형동 767,,어린이보호,4,,한라초 정문북측사거리,30,,064-710-8855,33.48027536,126.4847923,2019-07-18
"제주특별자치도",제주특별자치도 제주시 노형동 767,,어린이보호,4,,한라초 정문앞,30,,064-710-8855,33.48027536,126.4847923,2019-07-18
"제주특별자치도",제주특별자치도 제주시 노형동 767,,어린이보호,4,,한라초 정문 남측 삼거리,30,,064-710-8855,33.48027536,126.4847923,2019-07-18
"제주특별자치도",제주특별자치도 제주시 연동 2316-3,,어린이보호,7,,신광초 후문,30,,064-710-8855,33.49271118,126.4846174,2019-07-18
"제주특별자치도",제주특별자치도 제주시 연동 2478-16,,어린이보호,6,,신광초 정문,30,,064-710-8855,33.49030146,126.4840845,2019-07-18
"제주특별자치도",제주특별자치도 제주시 노형동 910-7,,어린이보호,4,,어린이공원 제1-10호,30,,064-710-8855,33.48678464,126.4840737,2019-07-18
"제주특별자치도",제주특별자치도 제주시 연동 1962-1,,어린이보호,7,,제1-46호 공원(신광아파트앞),30,,064-710-8855,33.49061382,126.4836775,2019-07-18
"제주특별자치도",제주특별자치도 제주시 연동 1962-1,,어린이보호,5,,어린이공원 제1-46호,30,,064-710-8855,33.49061382,126.4836775,2019-07-18
"제주특별자치도",제주특별자치도 제주시 성신로 25,,어린이보호,11,,신광초등학교,30,,064-710-8855,33.4916718,126.4841265,2019-07-18
"제주특별자치도",제주특별자치도 제주시 연동 2442-4,,어린이보호,4,,제성마을놀이터(제주서중동쪽),30,,064-710-8855,33.49471211,126.4831339,2019-07-18
"제주특별자치도",제주특별자치도 제주시 노형동 731,,어린이보호,4,,노형근린공원(1),30,,064-710-8855,33.48026906,126.4826604,2019-07-18
"제주특별자치도",제주특별자치도 제주시 노형동 731,,어린이보호,4,,노형근린공원(2),30,,064-710-8855,33.48026906,126.4826604,2019-07-18
"제주특별자치도",제주특별자치도 제주시 연동 2380,,어린이보호,6,,하나몬테소리어린이집,30,,064-710-8855,33.49272313,126.4825821,2019-07-18
"제주특별자치도",제주특별자치도 제주시 노형동 921,,어린이보호,4,,어린이공원 제1-11호,30,,064-710-8855,33.48289836,126.4822926,2019-07-18
"제주특별자치도",제주특별자치도 제주시 노형동 1274-8,,어린이보호,4,,어린이공원 제1-49호,30,,064-710-8855,33.48916195,126.4813744,2019-07-18
"제주특별자치도",제주특별자치도 제주시 노형동 751-1,,어린이보호,4,,어린이공원 제1-65호,30,,064-710-8855,33.47782433,126.480256,2019-07-18
"제주특별자치도",제주특별자치도 제주시 노형동 542,,어린이보호,4,,선마을어린이집,30,,064-710-8855,33.46893412,126.4801719,2019-07-18
"제주특별자치도",제주특별자치도 제주시 노형동 667,,어린이보호,3,,혜솔어린이집,30,,064-710-8855,33.47502127,126.4799348,2019-07-18
"제주특별자치도",제주특별자치도 서귀포시 강정동 4445-18,,어린이보호,4,,강정초,30,,064-710-8855,33.23576464,126.4795177,2019-07-18
"제주특별자치도",제주특별자치도 제주시 노형동 671-15,,어린이보호,4,,레코어린이집,30,,064-710-8855,33.47547265,126.4794379,2019-07-18
"제주특별자치도",제주특별자치도 서귀포시 강정동 4550,,어린이보호,3,,강정초 후문,30,,064-710-8855,33.2353003,126.4789142,2019-07-18
"제주특별자치도",제주특별자치도 서귀포시 강정동 4550,,어린이보호,3,,강정초 정문,30,,064-710-8855,33.2353003,126.4789142,2019-07-18
"제주특별자치도",제주특별자치도 서귀포시 말질로 188,,어린이보호,6,,강정초등학교,30,,064-710-8855,33.2349238,126.4791968,2019-07-18
"제주특별자치도",제주특별자치도 제주시 노형동 3790-1,,어린이보호,3,,노형제1어린이공원,30,,064-710-8855,33.48322471,126.4784463,2019-07-18
"제주특별자치도",제주특별자치도 서귀포시 도순동 269-4,,어린이보호,4,,도순초,30,,064-710-8855,33.25045906,126.4783705,2019-07-18
"제주특별자치도",제주특별자치도 제주시 남녕로 63,,어린이보호,15,,월랑초등학교,30,,064-710-8855,33.4925571,126.478029,2019-07-18
"제주특별자치도",제주특별자치도 제주시 노형동 1119-9,,어린이보호,7,,월랑초(오일장 입구),30,,064-710-8855,33.49365871,126.4779472,2019-07-18
"제주특별자치도",제주특별자치도 제주시 노형동 1066-1,,어린이보호,4,,어린이공원 제1-50호,30,,064-710-8855,33.4884604,126.4778396,2019-07-18
"제주특별자치도",제주특별자치도 제주시 노형동 1025-1,,어린이보호,4,,대산성공회 제주교회 삼거리,30,,064-710-8855,33.4931083,126.4778278,2019-07-18
"제주특별자치도",제주특별자치도 제주시 노형동 1035-16,,어린이보호,3,,애육어린이집,30,,064-710-8855,33.49198743,126.4775636,2019-07-18
"제주특별자치도",제주특별자치도 서귀포시 도순동 353-1,,어린이보호,3,,도순초,30,,064-710-8855,33.24705111,126.4774976,2019-07-18
"제주특별자치도",제주특별자치도 제주시 노형동 3799,,어린이보호,5,,노형제2어린이공원,30,,064-710-8855,33.48098978,126.4773579,2019-07-18
"제주특별자치도",제주특별자치도 서귀포시 도순남로 83,,어린이보호,7,,도순초등학교,30,,064-710-8855,33.2475232,126.4773927,2019-07-18
"제주특별자치도",제주특별자치도 제주시 노형동 1551-4,,어린이보호,5,,제주한라대학부설유치원,30,,064-710-8855,33.47626675,126.4771391,2019-07-18
"제주특별자치도",제주특별자치도 제주시 노형동 1297-2,,어린이보호,7,,월랑초 정문 남측삼거리,30,,064-710-8855,33.49074665,126.4770716,2019-07-18
"제주특별자치도",제주특별자치도 제주시 노형동 1297-2,,어린이보호,5,,월랑초 후문 북측사거리,30,,064-710-8855,33.49074665,126.4770716,2019-07-18
"제주특별자치도",제주특별자치도 제주시 노형동 3812-2,,어린이보호,4,,방일리공원,30,,064-710-8855,33.47788493,126.4768732,2019-07-18
"제주특별자치도",제주특별자치도 제주시 노형동 3812-2,,어린이보호,4,,방일리제1공원,30,,064-710-8855,33.47788493,126.4768732,2019-07-18
"제주특별자치도",제주특별자치도 제주시 노형동 3812-2,,어린이보호,5,,방일리제2공원,30,,064-710-8855,33.47788493,126.4768732,2019-07-18
"제주특별자치도",제주특별자치도 제주시 노형동 1285-2,,어린이보호,4,,어린이공원 제1-52호,30,,064-710-8855,33.48548032,126.4766726,2019-07-18
"제주특별자치도",제주특별자치도 제주시 노형동 1041-10,,어린이보호,4,,어린이공원 제1-48호,30,,064-710-8855,33.48991507,126.4762003,2019-07-18
"제주특별자치도",제주특별자치도 제주시 노형동 2610-1,,어린이보호,4,,노형초정문(동측),30,,064-710-8855,33.48474498,126.4761989,2019-07-18
"제주특별자치도",제주특별자치도 제주시 노형로 383,,어린이보호,11,,노형초등학교,30,,064-710-8855,33.48504141,126.4762465,2019-07-18
"제주특별자치도",제주특별자치도 제주시 노형동 1056-4,,어린이보호,4,,어린이공원 제1-51호,30,,064-710-8855,33.48741305,126.4756102,2019-07-18
"제주특별자치도",제주특별자치도 제주시 노형동 1031-1,,어린이보호,4,,어린이공원 제1-47호,30,,064-710-8855,33.49220743,126.4752994,2019-07-18
"제주특별자치도",제주특별자치도 제주시 노형동 2582-5,,어린이보호,4,,어린이공원 제1-96호,30,,064-710-8855,33.48794275,126.4744335,2019-07-18
"제주특별자치도",제주특별자치도 제주시 노형동 2615-8,,어린이보호,5,,백록초2(뜨란채입구삼가로),30,,064-710-8855,33.4862477,126.4731365,2019-07-18
"제주특별자치도",제주특별자치도 제주시 노형동 2531-5,,어린이보호,4,,어린이공원 제1-92호,30,,064-710-8855,33.48476111,126.4731124,2019-07-18
"제주특별자치도",제주특별자치도 제주시 노형동 2517-4,,어린이보호,3,,어린이공원 제1-91호,30,,064-710-8855,33.48224763,126.4723669,2019-07-18
"제주특별자치도",제주특별자치도 제주시 노형동 2596-3,,어린이보호,4,,어린이공원 제1-93호,30,,064-710-8855,33.48133272,126.4723248,2019-07-18
"제주특별자치도",제주특별자치도 제주시 노형동 2331-7,,어린이보호,4,,도토리어린이집 삼거리,30,,064-710-8855,33.47716629,126.4722553,2019-07-18
"제주특별자치도",제주특별자치도 제주시 노형동 2197-1,,어린이보호,3,,동연어린이집,30,,064-710-8855,33.47549314,126.4721826,2019-07-18
"제주특별자치도",제주특별자치도 서귀포시 도순동 802-1,,어린이보호,4,,큰엉유원지,30,,064-710-8855,33.25231394,126.4721615,2019-07-18
"제주특별자치도",제주특별자치도 서귀포시 도순동 802-1,,어린이보호,4,,도순원광어린이집,30,,064-710-8855,33.25231394,126.4721615,2019-07-18
"제주특별자치도",제주특별자치도 제주시 노형동 2582-1,,어린이보호,4,,노형제2근린공원(1),30,,064-710-8855,33.48972495,126.4720642,2019-07-18
"제주특별자치도",제주특별자치도 제주시 노형동 2582-1,,어린이보호,4,,노형제2근린공원(2),30,,064-710-8855,33.48972495,126.4720642,2019-07-18
"제주특별자치도",제주특별자치도 제주시 노형동 2582-1,,어린이보호,4,,노형제2근린공원(3),30,,064-710-8855,33.48972495,126.4720642,2019-07-18
"제주특별자치도",제주특별자치도 제주시 노형동 2582-1,,어린이보호,4,,노형제2근린공원(4),30,,064-710-8855,33.48972495,126.4720642,2019-07-18
"제주특별자치도",제주특별자치도 제주시 노형동 2514-2,,어린이보호,5,,어린이공원 제1-90호,30,,064-710-8855,33.48348308,126.4719557,2019-07-18
"제주특별자치도",제주특별자치도 제주시 노형동 2583-3,,어린이보호,4,,95호공원,30,,064-710-8855,33.48801335,126.4713825,2019-07-18
"제주특별자치도",제주특별자치도 제주시 노형동 2511-1,,어린이보호,4,,어린이공원 제1-89호,30,,064-710-8855,33.48450996,126.4710991,2019-07-18
"제주특별자치도",제주특별자치도 제주시 노형동 2713,,어린이보호,4,,에코숲어린이집,30,,064-710-8855,33.48970013,126.4706584,2019-07-18
"제주특별자치도",제주특별자치도 제주시 노형동 2585-4,,어린이보호,5,,새순유치원,30,,064-710-8855,33.48521835,126.4704906,2019-07-18
"제주특별자치도",제주특별자치도 제주시 노형동 2583-2,,어린이보호,4,,백록초 정문,30,,064-710-8855,33.48697124,126.4704092,2019-07-18
"제주특별자치도",제주특별자치도 제주시 노형동 2584-1,,어린이보호,4,,노형제1근린공원(백록초앞)1,30,,064-710-8855,33.48606957,126.4703062,2019-07-18
"제주특별자치도",제주특별자치도 제주시 노형동 2584-1,,어린이보호,4,,노형제1근린공원(백록초앞)2,30,,064-710-8855,33.48606957,126.4703062,2019-07-18
"제주특별자치도",제주특별자치도 제주시 정존5길 62,,어린이보호,12,,백록초등학교,30,,064-710-8855,33.48710012,126.4702264,2019-07-18
"제주특별자치도",제주특별자치도 제주시 노형동 2359-1,,어린이보호,4,,예심원어린이집(한라골프앞),30,,064-710-8855,33.48030009,126.4702171,2019-07-18
"제주특별자치도",제주특별자치도 제주시 노형동 1934-7,,어린이보호,3,,미리내공원(노형교차로 서측),30,,064-710-8855,33.46473267,126.4697915,2019-07-18
"제주특별자치도",제주특별자치도 제주시 노형동 2585-3,,어린이보호,4,,어린이공원 제1-94호,30,,064-710-8855,33.48428721,126.4686152,2019-07-18
"제주특별자치도",제주특별자치도 제주시 노형동 2867,,어린이보호,7,,백록초1(뜨란채북쪽도로변),30,,064-710-8855,33.4866967,126.4676635,2019-07-18
"제주특별자치도",제주특별자치도 제주시 도리로 129,,어린이보호,5,,도리초등학교,30,,064-710-8855,33.5020651,126.4653174,2019-07-18
"제주특별자치도",제주특별자치도 제주시 노형동 3578-13,,어린이보호,4,,숲앤아이어린이집 삼거리,30,,064-710-8855,33.47369517,126.4623946,2019-07-18
"제주특별자치도",제주특별자치도 서귀포시 하원동 323,,어린이보호,3,,하원초 정문,30,,064-710-8855,33.25282144,126.4595633,2019-07-18
"제주특별자치도",제주특별자치도 서귀포시 하원동 323,,어린이보호,3,,하원초 후문,30,,064-710-8855,33.25282144,126.4595633,2019-07-18
"제주특별자치도",제주특별자치도 서귀포시 월평하원로 149,,어린이보호,8,,하원초등학교,30,,064-710-8855,33.2530491,126.4594122,2019-07-18
"제주특별자치도",제주특별자치도 서귀포시 하원동 405,,어린이보호,2,,하원초,30,,064-710-8855,33.25418707,126.4593248,2019-07-18
"제주특별자치도",제주특별자치도 제주시 해안동 1948,,어린이보호,4,,해안초 정문,30,,064-710-8855,33.45668351,126.454222,2019-07-18
"제주특별자치도",제주특별자치도 제주시 해안마을길 76,,어린이보호,13,,해안초등학교,30,,064-710-8855,33.45683774,126.4546246,2019-07-18
